X,Y,OBJECTID,FEATURE_LOCATION,FEAT_CENT_EAST,FEAT_CENT_NORTH,longitude,latitude
359838,173397,1,Lamb St/ John Cozens House.,359838,173397,-2.57944451768745,51.4581147462788
359820.77,173383.710000001,2,"Lamb Street Bus Stop PTZ, St Jude's",359820.77,173383.71,-2.57969098913472,51.4579940227451
359803.55,173394.85,3,"John Cozens House Gardens PTZ, St Jude's",359803.55,173394.85,-2.57994009234915,51.4580929585076
359767.45,173353.880000001,4,"Chartlon, Haviland & Langton Entrance Door's) Ext, St Jude's",359767.45,173353.88,-2.58045499693683,51.4577220058911
359788.97,173377.73,5,"Haviland House Laundry #2, St Jude's",359788.97,173377.73,-2.58014798693625,51.4579379860765
359788.97,173377.73,6,"Haviland House Laundry #1, St Jude's",359788.97,173377.73,-2.58014798693625,51.4579379860765
359801.02,173390.310000001,7,"Haviland House Lift, St Jude's",359801.02,173390.31,-2.57997598904666,51.458051957222
359801.02,173390.310000001,8,"Haviland House Lower Entrance Door Internal, St Jude's",359801.02,173390.31,-2.57997598904666,51.458051957222
359801.02,173390.310000001,9,"Havliand House Main Entrance Lobby, St Jude's",359801.02,173390.31,-2.57997598904666,51.458051957222
358329.27,167593.57,10,Middleford Rear PTZ,358329.27,167593.57,-2.60047303429621,51.4058259331973
359624.39,172233.039999999,11,Bath Bridge Roundabout,359624.39,172233.04,-2.58238604444243,51.4476339654214
359411.9,173201.289999999,12,Lower Castle Street (Bike Rack),359411.9,173201.29,-2.58555465582373,51.4563245143968
359269.52,173169.23,13,Castle Park (North),359269.52,173169.23,-2.58760008145351,51.4560259768433
359738.78,174050.439999999,14,"St Nicholas Road/Davey Street PTZ, St Paul's",359738.78,174050.44,-2.58094706818125,51.4639829837836
359706.76,174025,15,Corey Close Lane PTZ,359706.76,174025,-2.58140507204725,51.4637519564325
359665.15,174033.789999999,16,"St Paul's Gardens, Playground #2 PTZ, St Paul's",359665.15,174033.79,-2.58200502542922,51.4638280157324
359652.27,173995.630000001,17,"St Paul's Gardens, Play area #2 PTZ, St Paul's",359652.27,173995.63,-2.58218606039355,51.4634839836623
359700.19,174019.16,18,"St Paul's Gardens, Playground #1 PTZ, St Paul's",359700.19,174019.16,-2.58149897577784,51.4636989773577
359664.45,174050.140000001,19,"Ludlow Close #2 PTZ, St Paul's",359664.45,174050.14,-2.58201697088058,51.4639749745183
359598.19,174034.539999999,20,"Ludlow Close #1 PTZ, St Paul's",359598.19,174034.54,-2.58296895776497,51.4638299657156
359615.6,174005.380000001,21,"Burnnel Drive Lane, Burnell/Ludlow PTZ, St Paul's",359615.6,174005.38,-2.58271501354629,51.4635690244311
359620.24,174011.789999999,22,"Ludlow Close Lift, St Paul's",359620.24,174011.79,-2.58264895787008,51.4636269914147
359669.73,174051.1,23,"Corey Close Laundry, St Paul's",359669.73,174051.1,-2.58194107812397,51.4639839838784
359707.61,174017.99,24,"Corey Close Lift, St Paul's",359707.61,174017.99,-2.58139203629995,51.4636889877071
358905,173816.960000001,25,Dove Street-Spring Hill,358905,173816.96,-2.59292166610431,51.4618234939369
357664.4,168453.35,26,Whitchurch Lane Middle,357664.4,168453.35,-2.61013509267932,51.4135069443044
359561,173782,27,St Pauls Park,359561,173782,-2.58347533149599,51.4615566174588
362060.39,175149.24,28,Fishponds Road/Huyton Road,362060.39,175149.24,-2.54764705166209,51.4740229781374
361793.79,175035.01,29,Fishponds Road/Royate Hill,361793.79,175035.01,-2.55147294067439,51.4729779625061
361174.04,174883.65,30,Fishponds Road/Boswell Street,361174.04,174883.65,-2.56037896141041,51.4715749555762
361273.86,174957.52,31,Fishponds Road/Heath Street,361273.86,174957.52,-2.55894999546511,51.4722459543058
361456.35,175152.33,32,Fishponds Road/Muller Road (Shell Filling Station),361456.35,175152.33,-2.55634402191417,51.4740099428745
359597.33,173927,33,"Beggarswell Close #1 PTZ, St Paul's",359597.33,173927,-2.58296901945856,51.4628629717795
359599.9,173909.07,34,"Princes Street PTZ, St Paul's",359599.9,173909.07,-2.58292997333704,51.4627019405948
358860.51,167630.060000001,35,Willow House Laundry,358860.51,167630.06,-2.59284007081288,51.4061929824677
358807.27,167660.189999999,36,Oak House Laundry,358807.27,167660.19,-2.59360896787797,51.4064600083884
358908.99,167491.199999999,37,Hartcliffe Chestnut House Ground Floor Stairwell,358908.99,167491.2,-2.59212700373672,51.404947980895
358908.6,167572.84,38,Hartcliffe Rowan House Ground Floor Stairwell,358908.6,167572.84,-2.59214207840354,51.4056820023165
358859.83,167631.619999999,39,Hartcliffe Willow House Ground Floor Stairwell,358859.83,167631.62,-2.59285002783744,51.4062069593438
358883.15,167496.41,40,"Chestnut House, Rear PTZ",358883.15,167496.41,-2.59249908173467,51.4049929444901
358934.75,167537.15,41,"Rowan House, The Groves PTZ",358934.75,167537.15,-2.59176200588285,51.4053630053089
358881.61,167606.199999999,42,Willow House Front Door PTZ,358881.61,167606.2,-2.5925339618713,51.4059799871348
358806,167642,43,"oak house/willow rear door (externa bullet)
",358806,167642,-2.59362511091554,51.4062963640611
358825,167649,44,"Oak House, The Groves PTZ",358825,167649,-2.59335277420491,51.4063606890821
358934.75,167537.15,45,Chestnut House Rear Door (External Static),358934.75,167537.15,-2.59176200588285,51.4053630053089
358913.07,167488.720000001,46,Chestnut House Rear Lobby,358913.07,167488.72,-2.59206806245987,51.404925979372
358913.07,167488.720000001,47,Chestnut House Lift 02,358913.07,167488.72,-2.59206806245987,51.404925979372
358913.07,167488.720000001,48,Chestnut House Lift 01,358913.07,167488.72,-2.59206806245987,51.404925979372
358913.07,167488.720000001,49,Chestnut House Lift Lobby,358913.07,167488.72,-2.59206806245987,51.404925979372
358913.07,167488.720000001,50,Chestnut House Front Lobby,358913.07,167488.72,-2.59206806245987,51.404925979372
358914.16,167494.27,51,Chestnut House Front Door Panel,358914.16,167494.27,-2.59205303627993,51.4049759604114
358881.61,167606.199999999,52,Rowan House Rear Door (External Static),358881.61,167606.2,-2.5925339618713,51.4059799871348
358934.75,167537.15,53,Rowan House Front Door,358934.75,167537.15,-2.59176200588285,51.4053630053089
358910.2,167572.939999999,54,Rowan House Rear Lobby,358910.2,167572.94,-2.59211908818021,51.405683017889
358910.2,167572.939999999,55,Rowan House Lift 02,358910.2,167572.94,-2.59211908818021,51.405683017889
358910.2,167572.939999999,56,Rowan House Lift 01,358910.2,167572.94,-2.59211908818021,51.405683017889
358910.2,167572.939999999,57,Rowan House Lift Lobby,358910.2,167572.94,-2.59211908818021,51.405683017889
358910.2,167572.939999999,58,Rowan House Front Lobby,358910.2,167572.94,-2.59211908818021,51.405683017889
358831.93,167647.640000001,59,Willow House Rear Door (External Static),358831.93,167647.64,-2.59325298808305,51.4063489662679
358881.61,167606.199999999,60,Willow House Front Door (External Static),358881.61,167606.2,-2.5925339618713,51.4059799871348
358860.84,167627.390000001,61,Willow House Rear Lobby,358860.84,167627.39,-2.59283501661001,51.4061689997478
358860.84,167627.390000001,62,Willow House Lift 02,358860.84,167627.39,-2.59283501661001,51.4061689997478
358860.84,167627.390000001,63,Willow House Lift 01,358860.84,167627.39,-2.59283501661001,51.4061689997478
358860.84,167627.390000001,64,Willow House Lift Lobby,358860.84,167627.39,-2.59283501661001,51.4061689997478
358860.84,167627.390000001,65,Willow House Front Lobby,358860.84,167627.39,-2.59283501661001,51.4061689997478
358867.15,167625.109999999,66,Willow House Front Door Panel,358867.15,167625.11,-2.59274403752498,51.4061489593256
358807.69,167660.41,67,Oak House Rear Lobby,358807.69,167660.41,-2.59360295537754,51.4064620171163
358807.69,167660.41,68,Oak House Lift 02,358807.69,167660.41,-2.59360295537754,51.4064620171163
358807.69,167660.41,69,Oak House Lift 01,358807.69,167660.41,-2.59360295537754,51.4064620171163
358807.69,167660.41,70,Oak House Lift Lobby,358807.69,167660.41,-2.59360295537754,51.4064620171163
358807.69,167660.41,71,Oak House Front Lobby,358807.69,167660.41,-2.59360295537754,51.4064620171163
358908.76,167488.98,72,Chestnut House Laundry,358908.76,167488.98,-2.59213005274109,51.4049280034675
358910.53,167570.380000001,73,Rowan House Laundry,358910.53,167570.38,-2.59211404717076,51.4056600241758
358825,167633,74,"oak house rear door (external bullet)
",358825,167633,-2.59335091474384,51.4062168283396
358778.47,167703.35,75,"Oak House Front Door External Fixed
",358778.47,167703.35,-2.59402802924056,51.4068459706756
358807.69,167660.41,76,"Oak House Ground Floor Stairwell
",358807.69,167660.41,-2.59360295537754,51.4064620171163
359062.91,173414.130000001,77,Horsefair/Arcade Street,359062.91,173414.13,-2.59060196338503,51.4582129923208
359174,173485,78,Horsefair/ Barrs Court - Street Lighting Column 008,359174,173485,-2.58901128692672,51.45885827086
359299.3,173481.9,79,The Horsefair/ Penn Street (Outside Poundland) - Street Lighting Column 011,359299.3,173481.9,-2.58720751307569,51.4588394622287
361948.83,170724.300000001,80,"Brislington, Kings Arms",361948.83,170724.3,-2.54877605942246,51.4342299550341
360502.59,173822.68,81,"Vining Walk, Lower Door Panel (29-54)",360502.59,173822.68,-2.56992699491505,51.4619891434193
360499.24,173821.02,82,Vining Walk Laundry (Internal),360499.24,173821.02,-2.5699750285142,51.4619739831301
360505.15,173776.710000001,83,"Vining Walk Upper, Door Panel (1-20)",360505.15,173776.71,-2.56988501015027,51.4615759926509
360512.51,173794.890000001,84,Vining Walk Upper PTZ,360512.51,173794.89,-2.56978110407595,51.4617399701305
360550.47,173770.58,85,Abraham Close PTZ,360550.47,173770.58,-2.56923200681912,51.4615240494982
360871.08,173380.609999999,86,Lawrence Hill Station,360871.08,173380.61,-2.56457402835629,51.458040001641
360539.56,173448.24,87,"Payne Drive, Door Panel (14-32)",360539.56,173448.24,-2.56935306340565,51.4586250289155
356536.44,177498.25,88,On col 23 Canford Lane,356536.44,177498.25,-2.62746846631453,51.4947444429044
358729.33,173500.140000001,89,Upper Maudlin Street/Lower Maudlin Street,358729.33,173500.14,-2.59541309289505,51.4589620073114
358893,173391,90,Lewins Mead/ Haymarket (Outside Bay Horse),358893,173391,-2.59304470835045,51.4579926523246
362758.8,173585.33,91,"Summerhill Road, Hardings Terrace",362758.8,173585.33,-2.53742601652072,51.4600080096378
358935.55,172078.189999999,92,Att to Column 3,358935.55,172078.19,-2.59227989214149,51.4461919375336
361007.87,173033.449999999,93,"Ashmead House, Lower Back Door (Stairwell)",361007.87,173033.45,-2.5625669852445,51.4549280206307
361008.65,173026.99,94,"Ashmead House, Lower Back Door (External)",361008.65,173026.99,-2.56255504814367,51.4548699904553
360907.21,172918.33,95,"Phoenix House, Upper Entrance Door Panel",360907.21,172918.33,-2.56400297174009,51.4538859867714
360898.94,172918.17,96,"Phoenix House, Upper Entrance PTZ",360898.94,172918.17,-2.56412197296779,51.4538839761808
360909.08,172917.98,97,"Phoenix House, Upper Entrance Lift  ",360909.08,172917.98,-2.56397602072889,51.4538829691218
360909.08,172917.98,98,"Phoenix House, Upper Entrance Lift lobby",360909.08,172917.98,-2.56397602072889,51.4538829691218
360909.08,172917.98,99,"Phoenix House, Upper Entrance (Internal)",360909.08,172917.98,-2.56397602072889,51.4538829691218
360948.78,172975.4,100,"Ecclestone House, Avonvale Road PTZ",360948.78,172975.4,-2.56341100477866,51.454401995373
360970.29,172953.1,101,"Ecclestone House, Lift lobby (Upper)",360970.29,172953.1,-2.56309897906985,51.4542029741579
361026.61,173022.289999999,102,"Ashmead House, Front Lower, External PTZ",361026.61,173022.29,-2.56229605132283,51.4548289696065
361012.38,173015.390000001,103,"Ashmead House, Rear Lower PTZ",361012.38,173015.39,-2.5625000889124,51.4547659483056
360558.36,173444.75,104,"Payne Drive, Bin Room (External)",360558.36,173444.75,-2.56908209324304,51.4585949653527
360551.65,173501.970000001,105,"Croydon House, Bridge PTZ",360551.65,173501.97,-2.56918504872865,51.4591089790694
360512,173474,106,"Walker Close Underpass 2
",360512,173474,-2.56975259839706,51.4588547151946
360477,173443.960000001,107,"Walker Close Underpass 1
",360477,173443.96,-2.57025298790174,51.458582161413
359070,175333,108,Gloucester/ Sommerville Rd - Street Lighting Column 17,359070,175333,-2.59072300264604,51.4754665279259
358974.05,174943,109,"Gloucester Road, Overton Road",358974.05,174943,-2.59205901585265,51.4719530242774
356583.91,168319.810000001,110,Highridge Road/King George Road,356583.91,168319.81,-2.62565501786417,51.4122240162552
360502.44,174313.470000001,111,Lower Ashley Road/Warwick Road/Oxford Place,360502.44,174313.47,-2.56998400739372,51.4664019722474
358278.31,167622.689999999,112,Millmead Rear (External PTZ),358278.31,167622.69,-2.60120907257916,51.4060839960583
358352.29,167661.23,113,Millmead House Car Park PTZ,358352.29,167661.23,-2.60015004864024,51.4064359816167
358405,167641.779999999,114,Middleford House Play Park PTZ,358405,167641.78,-2.59938998741179,51.406264986734
358414.28,167687.970000001,115,Hayleigh House Car Park PTZ,358414.28,167687.97,-2.59926199707568,51.406680977601
358278.31,167622.689999999,116,Millmead House Rear Door (External Static),358278.31,167622.69,-2.60120907257916,51.4060839960583
358352.29,167661.23,117,Millmead House Front Door (External Static),358352.29,167661.23,-2.60015004864024,51.4064359816167
358303.29,167639.609999999,118,Millmead House Rear Lobby,358303.29,167639.61,-2.60085194540631,51.4062379737343
358303.29,167639.609999999,119,Millmead House Lift 02,358303.29,167639.61,-2.60085194540631,51.4062379737343
358303.29,167639.609999999,120,Millmead House Lift 01,358303.29,167639.61,-2.60085194540631,51.4062379737343
358303.29,167639.609999999,121,Millmead House Lift Lobby,358303.29,167639.61,-2.60085194540631,51.4062379737343
358303.29,167639.609999999,122,Millmead House Front Lobby,358303.29,167639.61,-2.60085194540631,51.4062379737343
358306.87,167643.92,123,Millmead House Front Door Panel,358306.87,167643.92,-2.60080098549615,51.4062769905066
358352.29,167661.23,124,Hayleigh House Rear Door (External Static),358352.29,167661.23,-2.60015004864024,51.4064359816167
358414.28,167687.970000001,125,Hayleigh House Front Door (External Static),358414.28,167687.97,-2.59926199707568,51.406680977601
358389.06,167675.5,126,Hayleigh House Rear Lobby,358389.06,167675.5,-2.59962310608508,51.4065669982281
358389.06,167675.5,127,Hayleigh House Lift 02,358389.06,167675.5,-2.59962310608508,51.4065669982281
358389.06,167675.5,128,Hayleigh House Lift 01,358389.06,167675.5,-2.59962310608508,51.4065669982281
358389.06,167675.5,129,Hayleigh House Lift Lobby,358389.06,167675.5,-2.59962310608508,51.4065669982281
358389.06,167675.5,130,Hayleigh House Front Lobby,358389.06,167675.5,-2.59962310608508,51.4065669982281
358393.96,167678.68,131,Hayleigh House Front Door Panel,358393.96,167678.68,-2.59955303519223,51.4065959515982
358301.66,167644.41,132,Millmead House Laundry,358301.66,167644.41,-2.60087594370168,51.406281011495
358391.5,167676.029999999,133,Hayleigh House Laundry,358391.5,167676.03,-2.59958808992265,51.4065719434238
358302.4,167641.73,134,Hartcliffe Millmead House 10th Floor Lift Lobby,358302.4,167641.73,-2.60086498981614,51.4062569695188
358302.4,167641.73,135,Hartcliffe Millmead House 9th Floor Lift Lobby,358302.4,167641.73,-2.60086498981614,51.4062569695188
358302.4,167641.73,136,Hartcliffe Millmead House 8th Floor Lift Lobby,358302.4,167641.73,-2.60086498981614,51.4062569695188
358302.4,167641.73,137,Hartcliffe Millmead House 7th Floor Lift Lobby,358302.4,167641.73,-2.60086498981614,51.4062569695188
358302.4,167641.73,138,Hartcliffe Millmead House 6th Floor Lift Lobby,358302.4,167641.73,-2.60086498981614,51.4062569695188
358302.4,167641.73,139,Hartcliffe Millmead house 5th Floor Lift Lobby,358302.4,167641.73,-2.60086498981614,51.4062569695188
358302.4,167641.73,140,Hartcliffe Millmead House 4th Floor Lift Lobby,358302.4,167641.73,-2.60086498981614,51.4062569695188
358302.4,167641.73,141,Hartcliffe Millmead House 3rd Floor Lift Lobby,358302.4,167641.73,-2.60086498981614,51.4062569695188
358302.4,167641.73,142,Hartcliffe Millmead House 2nd Floor Lift Lobby,358302.4,167641.73,-2.60086498981614,51.4062569695188
358302.4,167641.73,143,Hartcliffe Millmead House 1st Floor Lift Lobby,358302.4,167641.73,-2.60086498981614,51.4062569695188
358302.4,167641.73,144,Hartcliffe Millmead House Ground Floor Stairwell,358302.4,167641.73,-2.60086498981614,51.4062569695188
358389.15,167677.390000001,145,Hartcliffe Hayleigh House Ground Floor Stairwell,358389.15,167677.39,-2.59962203419197,51.4065839983813
358307,167637,146,Millmead House 4th Floor Stairwell,358307,167637,-2.60079830222264,51.4062147804604
358307,167637,147,Millmead House 5th Floor Stairwell,358307,167637,-2.60079830222264,51.4062147804604
358307,167637,148,Millmead House 6th Floor Stairwell,358307,167637,-2.60079830222264,51.4062147804604
358307,167637,149,Millmead House 7th Floor Stairwell,358307,167637,-2.60079830222264,51.4062147804604
358307,167637,150,Millmead House 8th Floor Stairwell,358307,167637,-2.60079830222264,51.4062147804604
358307,167637,151,Millmead House 9th Floor Stairwell,358307,167637,-2.60079830222264,51.4062147804604
358307,167637,152,Millmead House Ground Floor Stairwell,358307,167637,-2.60079830222264,51.4062147804604
358390,167677,153,Hayleigh House Ground Floor Stairwell,358390,167677,-2.59960976844525,51.4065805544241
358390,167677,154,Hayleigh House 1st Floor Stairwell,358390,167677,-2.59960976844525,51.4065805544241
358390,167677,155,Hayleigh House 2nd Floor Stairwell,358390,167677,-2.59960976844525,51.4065805544241
358390,167677,156,Hayleigh House 3rd Floor Stairwell,358390,167677,-2.59960976844525,51.4065805544241
358390,167677,157,Hayleigh House 4th Floor Stairwell,358390,167677,-2.59960976844525,51.4065805544241
358390,167677,158,Hayleigh House 5th Floor Stairwell,358390,167677,-2.59960976844525,51.4065805544241
358390,167677,159,Hayleigh House 6th Floor Stairwell,358390,167677,-2.59960976844525,51.4065805544241
358390,167677,160,Hayleigh House 7th Floor Stairwell,358390,167677,-2.59960976844525,51.4065805544241
358390,167677,161,Hayleigh House 8th Floor Stairwell,358390,167677,-2.59960976844525,51.4065805544241
358390,167677,162,Hayleigh House 9th Floor Stairwell,358390,167677,-2.59960976844525,51.4065805544241
358307,167637,163,Millmead House 1st Floor Stairwell,358307,167637,-2.60079830222264,51.4062147804604
358307,167637,164,Millmead House 2nd Floor Stairwell,358307,167637,-2.60079830222264,51.4062147804604
358307,167637,165,Millmead House 3rd Floor Stairwell,358307,167637,-2.60079830222264,51.4062147804604
361465.46,170987.08,166,Bath Road/Tramway Road,361465.46,170987.08,-2.55575809313308,51.4365599706023
359896.17,171886.82,167,"Att C15 - Jam Cam, not in use",359896.17,171886.82,-2.57843614595003,51.4445404558789
359872.83,171904.380000001,168,Att to Column 13,359872.83,171904.38,-2.57877395892211,51.4446966800841
360257.6,171667.380000001,169,Bath Road/Totterdown Bridge,360257.6,171667.38,-2.57321111529252,51.4425930162328
359897.57,171861.18,170,Bath Road/Wells Road (Three Lamps),359897.57,171861.18,-2.57841309787403,51.4443100225806
357952.18,170542.449999999,171,On Col 9,357952.18,170542.45,-2.6062473938964,51.4323119518911
357834.59,170659.77,172,Parson St Rail Station,357834.59,170659.77,-2.60795289244113,51.4333579779712
357956.92,170523.279999999,173,Bedminster Road/Parson Street,357956.92,170523.28,-2.60617692192272,51.4321399496697
355516.52,178576.310000001,174,On C67,355516.52,178576.31,-2.64229531526242,51.5043575685129
354923.03,178750.74,175,Watchman camera opp C53,354923.03,178750.74,-2.6508679379489,51.5058786308524
355162.54,178695.050000001,176,O/S 470 Opp 491 Watchman camera oppC58,355162.54,178695.05,-2.64741015289653,51.5053970592757
360966.96,173679.609999999,177,Russell Town Avenue/Whitehall Road (cycle path),360966.96,173679.61,-2.56322704638345,51.4607350155032
361071,173787,178,Owen Square Bath-Bristol Cycle,361071,173787,-2.56174135794861,51.4617077495415
359807.73,174300.470000001,179,Ashley Road/Ashfield Place/Badminton Road,359807.73,174300.47,-2.5799830524436,51.4662360106757
360593.07,173556.82,180,"Walker Close, Croydon Street Door Panel (1-16)",360593.07,173556.82,-2.56859501272968,51.4596050498248
360593.38,173551.92,181,Croydon Street Door Panel (Fixed Camera in Housing Above Door),360593.38,173551.92,-2.56859000478435,51.4595610141454
360591.96,173547.93,182,"Croydon House, Rear PTZ",360591.96,173547.93,-2.56860999804122,51.4595250395706
356887,179125,183,Croa Lane/Standfast Road Column 2,356887,179125,-2.62261783241507,51.5093973034013
357006,179088,184,Crow Lane Column 19,357006,179088,-2.62089867157626,51.5090737291947
361001.3,172920.17,185,"Ecclestone House, Main Entrance Door Panel",361001.3,172920.17,-2.56264906433959,51.4539090298361
361005.41,172939.49,186,"Ecclestone House, Car Park PTZ",361005.41,172939.49,-2.56259204218474,51.4540830258277
360997.72,172905.73,187,"Ecclestone House, Rear PTZ",360997.72,172905.73,-2.5626989960122,51.4537789480529
361004.26,172916.470000001,188,"Ecclestone House, Main Entrance Lift Lobby",361004.26,172916.47,-2.56260605758301,51.4538759661207
361004.26,172916.470000001,189,"Ecclestone House, Laundry",361004.26,172916.47,-2.56260605758301,51.4538759661207
361004.26,172916.470000001,190,"Ecclestone House, Laundry Door",361004.26,172916.47,-2.56260605758301,51.4538759661207
361004.26,172916.470000001,191,"Ecclestone House, Main Entrance (Internal)",361004.26,172916.47,-2.56260605758301,51.4538759661207
361004.26,172916.470000001,192,"Ecclestone House, Main Entrance (External)",361004.26,172916.47,-2.56260605758301,51.4538759661207
360942.95,172894.25,193,"Phoenix House, Laundry Door",360942.95,172894.25,-2.56348595844163,51.4536719459576
360942.95,172894.25,194,"Phoenix House, Main Entrance (External)",360942.95,172894.25,-2.56348595844163,51.4536719459576
360942.95,172894.25,195,"Phoenix House, Main Entrance (Internal)",360942.95,172894.25,-2.56348595844163,51.4536719459576
360942.95,172894.25,196,"Phoenix House, Main Entrance Lift Lobby",360942.95,172894.25,-2.56348595844163,51.4536719459576
360942.95,172894.25,197,"Phoenix House, Main Entrance Lift  ",360942.95,172894.25,-2.56348595844163,51.4536719459576
360942.95,172894.25,198,"Phoenix House, Laundry",360942.95,172894.25,-2.56348595844163,51.4536719459576
360939.8,172882.82,199,"Phoenix House, Aiken Street PTZ",360939.8,172882.82,-2.56353003115379,51.4535689573583
360941.14,172912.4,200,"Phoenix House, Car Park PTZ",360941.14,172912.4,-2.56351400914118,51.4538350135954
360967.31,172918.65,201,"Ecclestone/Phoenix House, Park Area PTZ",360967.31,172918.65,-2.56313806910032,51.453893017053
360936.94,172899.08,202,"Phoenix House, Main Entrance Door Panel",360936.94,172899.08,-2.56357298463187,51.4537149588119
360941.14,172912.4,203,"Phoenix House, Vehicle Gates (Static) ",360941.14,172912.4,-2.56351400914118,51.4538350135954
360941.14,172912.4,204,"Ecclestone House, Vehicle Gates (Static) ",360941.14,172912.4,-2.56351400914118,51.4538350135954
359199.64,173128.310000001,205,Castle Park (West),359199.64,173128.31,-2.58860105540234,51.4556529940928
357410,170179,206,A38/ Bedminster Down Rd (Cross Hands) - Street Lighting Column 23,357410,170179,-2.61400253592482,51.4290034829504
355923.09,168982.27,207,Lime Kiln Roundabout (Upper),355923.09,168982.27,-2.6352389590236,51.4181289874538
355856.08,169043.02,208,Lime Kiln Roundabout (Lower),355856.08,169043.02,-2.63621004034877,51.4186699446785
359761.53,173414.43,209,"Elbridge House, Great Ann Street PTZ, St Jude's",359761.53,173414.43,-2.58054708995019,51.4582660105838
359785.27,173455.609999999,210,"Elton House Rear Area PTZ, St Jude's",359785.27,173455.61,-2.58021009610691,51.458637969779
358411.79,173039.619999999,211,"Trenchard Street Car Park, Level 11 Frogmore Street Stairwell block PTZ
",358411.79,173039.62,-2.59992906733683,51.4547979539516
358409.24,173093.029999999,212,"Trenchard Street Car Park, Level 10 Park Row Near Corner",358409.24,173093.03,-2.59997206362987,51.4552779951946
358411.79,173039.619999999,213,"Trenchard Street Car Park, Level 10 Frogmore Street Corner
",358411.79,173039.62,-2.59992906733683,51.4547979539516
358409.24,173093.029999999,214,"Trenchard Street Car Park, Level 09 Park Row Near Corner
",358409.24,173093.03,-2.59997206362987,51.4552779951946
358411.79,173039.619999999,215,"Trenchard Street Car Park, Level 09 Frogmore Street Corner
",358411.79,173039.62,-2.59992906733683,51.4547979539516
358411.79,173039.619999999,216,"Trenchard Street Car Park, Level 08 Frogmore St Corner",358411.79,173039.62,-2.59992906733683,51.4547979539516
358409.24,173093.029999999,217,"Trenchard street Car Park, Level 07 Park Row Near Corner",358409.24,173093.03,-2.59997206362987,51.4552779951946
358411.79,173039.619999999,218,"Trenchard Street Car Park, Level 07  Frogmore Street Corner
",358411.79,173039.62,-2.59992906733683,51.4547979539516
358409.24,173093.029999999,219,"Trenchard Street Car Park, Level 06 Park Row Near Corner
",358409.24,173093.03,-2.59997206362987,51.4552779951946
358411.79,173039.619999999,220,"Trenchard Street Car Park, Level 06 Frogmore Street Corner
",358411.79,173039.62,-2.59992906733683,51.4547979539516
358409.24,173093.029999999,221,"Trenchard Street Car Park, Level 05 Trenchard Street Park Row Near Corner
",358409.24,173093.03,-2.59997206362987,51.4552779951946
358388.87,173082.41,222,"Trenchard Street Car Park, Level 05 By Park Row Stairs
",358388.87,173082.41,-2.60026396597858,51.4551810030152
358435.45,173009.51,223,"Trenchard Street Car Park, Level 05 Frogmore Street Corner",358435.45,173009.51,-2.59958501951008,51.4545289691805
358457.93,173031.24,224,"Trenchard Street Car Park, Level 05 Trenchard St Corner",358457.93,173031.24,-2.59926406288549,51.4547260094449
358439,173066,225,"Trenchard Street Car Park, Level 04 Park Row Near Corner
",358439,173066,-2.5995405867401,51.4550371539154
358407.36,173041.109999999,226,"Trenchard Street Car Park, Level 04 Frogmore Street Corner
",358407.36,173041.11,-2.59999299678365,51.4548110241538
358439,173066,227,"Trenchard Street Car Park, Level 03 Lodge Street Near Corner
",358439,173066,-2.5995405867401,51.4550371539154
358435.45,173009.51,228,"Trenchard Street Car Park, Level 03 Frogmore Far Street Corner
",358435.45,173009.51,-2.59958501951008,51.4545289691805
358413,173045,229,"Trenchard Street Car Park, Level 02 Lodge Street Far Corner
",358413,173045,-2.59991228814879,51.4548464168572
358457.93,173031.24,230,"Trenchard Street Car Park, Level 02 Trenchard Street Corner
",358457.93,173031.24,-2.59926406288549,51.4547260094449
358435.45,173009.51,231,"Trenchard Street Car Park, Level 01 Frogmore Street Far Corner
",358435.45,173009.51,-2.59958501951008,51.4545289691805
358435.62,173056.109999999,232,"Trenchard Street Car Park, Level 01 Lodge Street Near Corner
",358435.62,173056.11,-2.59958806436347,51.454947979906
358444.45,173064.6,233,"Trenchard Street Car Park, Lift #3",358444.45,173064.6,-2.59946198842093,51.4550249679081
358444.45,173064.6,234,"Trenchard Street Car Park, Lift #2",358444.45,173064.6,-2.59946198842093,51.4550249679081
358444.45,173064.6,235,"Trenchard Street Car Park, Lift #1",358444.45,173064.6,-2.59946198842093,51.4550249679081
358380.75,173083.59,236,"Trenchard Street Car Park, Level 11 Park Row Stairwell
",358380.75,173083.59,-2.6003809641508,51.455191013198
358405.69,173041.119999999,237,"Trenchard Street Car Park, Level 11 Entrance to Park Row Stairwell 
",358405.69,173041.12,-2.60001703154498,51.4548109908065
358405.19,173039.01,238,"Trenchard Street Car Park, Level 11 Frogmore Street Stairwell
",358405.19,173039.01,-2.60002397838588,51.4547919820952
358420.6,173063.35,239,"Trenchard Street Car Park, Level 11 Entrance to Lodge Street Stairs
",358420.6,173063.35,-2.59980507691594,51.4550119694366
358440.09,173066.75,240,"Trenchard Street Car Park, Level 11 Lodge Street Stairwell
",358440.09,173066.75,-2.59952498843647,51.4550439778364
358380.75,173083.59,241,"Trenchard Street Car Park, Level 10 Park Row Stairwell",358380.75,173083.59,-2.6003809641508,51.455191013198
358386.13,173079.210000001,242,"Trenchard Street Car Park, Level 10 Entrance to Park Row Stairs
",358386.13,173079.21,-2.60030302108032,51.455152028281
358405.19,173039.01,243,"Trenchard Street Car Park, Level 10/11 Frogmore Street Stairwell
",358405.19,173039.01,-2.60002397838588,51.4547919820952
358436.79,173063.220000001,244,"Trenchard Street Car Park, Level 10 Entrance to Lodge Street Stairs
",358436.79,173063.22,-2.59957206424147,51.4550119948919
358440.09,173066.75,245,"Trenchard Street Car Park, Level 10 Lodge Street Stairwell",358440.09,173066.75,-2.59952498843647,51.4550439778364
358442.02,173064.84,246,"Trenchard Street Car Park, Level 10 Lodge Street Lift Lobby
",358442.02,173064.84,-2.59949698790055,51.4550269466401
358380.75,173083.59,247,"Trenchard Street Car Park, Level 09 Park Row Stairs
",358380.75,173083.59,-2.6003809641508,51.455191013198
358386.13,173079.210000001,248,"Trenchard Street Car Park, Level 09 Entrance to Park Row Stairs
",358386.13,173079.21,-2.60030302108032,51.455152028281
358405.19,173039.01,249,"Trenchard Street Car Park, Level 09/10 Frogmore Street Stairwell
",358405.19,173039.01,-2.60002397838588,51.4547919820952
358436.79,173063.220000001,250,"Trenchard Street Car Park, Level 09 Entrance to Lodge Street Street Stairs
",358436.79,173063.22,-2.59957206424147,51.4550119948919
358440.09,173066.75,251,"Trenchard Street Car Park, Level 09 Lodge Street Street Stairwell
",358440.09,173066.75,-2.59952498843647,51.4550439778364
358442.02,173064.84,252,"Trenchard Street Car Park, Level 09 Lodge Street Lift Lobby Street Stairs
",358442.02,173064.84,-2.59949698790055,51.4550269466401
358389.44,173084.74,253,"Trenchard Street Car Park, Level 08 Park Row POF 
",358389.44,173084.74,-2.60025603773541,51.4552019950112
358389.44,173084.74,254,"Trenchard Street Car Park, Level 08 Park Row POF OLD
",358389.44,173084.74,-2.60025603773541,51.4552019950112
358380.75,173083.59,255,"Trenchard Street Car Park, Level 08 Park Row Stairwell
",358380.75,173083.59,-2.6003809641508,51.455191013198
358386.13,173079.210000001,256,"Trenchard Street Car Park, Level 08 Entrance To Park Row Stairs
",358386.13,173079.21,-2.60030302108032,51.455152028281
358405.19,173039.01,257,"Trenchard Street Car Park, Level 08/09 Frogmore Street Stairwell
",358405.19,173039.01,-2.60002397838588,51.4547919820952
358436.79,173063.220000001,258,"Trenchard Street Car Park, Level 08 Entrance to Lodge Street Stairs",358436.79,173063.22,-2.59957206424147,51.4550119948919
358440.09,173066.75,259,"Trenchard Street Car Park, Level 08 Lodge Street Stairwell
",358440.09,173066.75,-2.59952498843647,51.4550439778364
358442.02,173064.84,260,"Trenchard Street Car Park, Level 08 Lodge Street Lift Lobby
",358442.02,173064.84,-2.59949698790055,51.4550269466401
358380.75,173083.59,261,"Trenchard Street Car Park, Level 07 Park Row Stairwell
",358380.75,173083.59,-2.6003809641508,51.455191013198
358386.13,173079.210000001,262,"Trenchard Street Car Park, Level 07 Entrance to Park Row Stairs",358386.13,173079.21,-2.60030302108032,51.455152028281
358405.19,173039.01,263,"Trenchard Street Car Park, Level 07/08 Frogmore Street Stairwell
",358405.19,173039.01,-2.60002397838588,51.4547919820952
358436.79,173063.220000001,264,"Trenchard Street Car Park, Level 07 Entrance to Lodge Street Stairs",358436.79,173063.22,-2.59957206424147,51.4550119948919
358440.09,173066.75,265,"Trenchard Street Car Park, Level 07 Lodge Street Stairwell 
",358440.09,173066.75,-2.59952498843647,51.4550439778364
358442.02,173064.84,266,"Trenchard Street Car Park, Level 07 Lodge Street Lift Lobby",358442.02,173064.84,-2.59949698790055,51.4550269466401
358380.75,173083.59,267,"Trenchard Street Car Park, Level 06 Park Row Stairwell
",358380.75,173083.59,-2.6003809641508,51.455191013198
358386.13,173079.210000001,268,"Trenchard Street Car Park, Level 06 Entrance to Park Row Stairs",358386.13,173079.21,-2.60030302108032,51.455152028281
358405.19,173039.01,269,"Trenchard Street Car Park, Level 06/07 Frogmore Street Stairwell
",358405.19,173039.01,-2.60002397838588,51.4547919820952
358461.62,173031.65,270,"Trenchard Street Car Park, Level 6",358461.62,173031.65,-2.59921100712438,51.4547299679175
358461.62,173031.65,271,"Trenchard Street car Park, Level 5&6 Trenchard Street Stairwell",358461.62,173031.65,-2.59921100712438,51.4547299679175
358437.44,173057.210000001,272,"Trenchard Street Car Park, Level 05/06 Trenchard Street Stairwell
",358437.44,173057.21,-2.59956200160901,51.4549580046567
358436.79,173063.220000001,273,"Trenchard Street Car Park, Level 06 Entrance to Lodge Street Stairs",358436.79,173063.22,-2.59957206424147,51.4550119948919
358440.09,173066.75,274,"Trenchard Street Car Park, Level 06 Lodge Street Stairwell
",358440.09,173066.75,-2.59952498843647,51.4550439778364
358442.02,173064.84,275,"Trenchard Street Car Park, Level 06 Lodge Street Lift Lobby",358442.02,173064.84,-2.59949698790055,51.4550269466401
358380.75,173083.59,276,"Trenchard Street Car Park, Level 05 Park Row Stairwell
",358380.75,173083.59,-2.6003809641508,51.455191013198
358405.19,173039.01,277,"Trenchard Street Car Park, Level 05/06 Frogmore Street Stairs
",358405.19,173039.01,-2.60002397838588,51.4547919820952
358461.62,173031.65,278,"Trenchard Street Car Park, Level 04/05 Trenchard Street Stairwell
",358461.62,173031.65,-2.59921100712438,51.4547299679175
358458.16,173033.35,279,"Trenchard Street Car Park, Level 05 Entrance to Trenchard Street Stairs",358458.16,173033.35,-2.59926100137442,51.4547449982065
358436.79,173063.220000001,280,"Trenchard Street Car Park, Level 05 SOS & Entrance to Lodge Street Stairs",358436.79,173063.22,-2.59957206424147,51.4550119948919
358440.09,173066.75,281,"Trenchard Street Car Park, Level 05 Lodge Street Stairwell
",358440.09,173066.75,-2.59952498843647,51.4550439778364
358448.25,173062.119999999,282,"Trenchard Street Car Park, Level 05 Lodge Street Lifts/POF
",358448.25,173062.12,-2.59940700879059,51.4550029495001
358442.02,173064.84,283,"Trenchard Street Car Park, Level 05 Lodge Street Lift Lobby",358442.02,173064.84,-2.59949698790055,51.4550269466401
358405.19,173039.01,284,"Trenchard Street Car Park, Level 04/05 Frogmore Street Stairwell
",358405.19,173039.01,-2.60002397838588,51.4547919820952
358461.62,173031.65,285,"Trenchard Street Car Park, Level 03/04 Trenchard Street Stairwell
",358461.62,173031.65,-2.59921100712438,51.4547299679175
358458.16,173033.35,286,"Trenchard Street Car Park, Level 04 Entrance to Trenchard Street Stairs 
",358458.16,173033.35,-2.59926100137442,51.4547449982065
358436.79,173063.220000001,287,"Trenchard Street Car Park, Level 04 Entrance to Lodge Street Stairs
",358436.79,173063.22,-2.59957206424147,51.4550119948919
358440.09,173066.75,288,"Trenchard Street Car Park, Level 04 Lodge Street Stairwell
",358440.09,173066.75,-2.59952498843647,51.4550439778364
358442.02,173064.84,289,"Trenchard Street Car Park, Level 04 Lodge Street Lift Lobby 
",358442.02,173064.84,-2.59949698790055,51.4550269466401
358405.19,173039.01,290,"Trenchard Street Car Park, Level 03/04 Frogmore Street Stairwell
",358405.19,173039.01,-2.60002397838588,51.4547919820952
358461.62,173031.65,291,"Trenchard Street Car Park, Level 02/03 Trenchard Street Stairwell
",358461.62,173031.65,-2.59921100712438,51.4547299679175
358458.16,173033.35,292,"Trenchard Street Car Park, Level 03 Entrance to Trenchard Street Stairs
",358458.16,173033.35,-2.59926100137442,51.4547449982065
358436.79,173063.220000001,293,"Trenchard Street Car Park, Level 03 Entrance to Lodge Street Stairs
",358436.79,173063.22,-2.59957206424147,51.4550119948919
358440.09,173066.75,294,"Trenchard Street Car Park, Level 03 Lodge Street Stairwell
",358440.09,173066.75,-2.59952498843647,51.4550439778364
358451,173056,295,"Trenchard Street Car Park, Level 03 Lodge Street Lift Lobby
",358451,173056,-2.59936671144247,51.4549481250378
358405.19,173039.01,296,"Trenchard Street Car Park, Level 02/03 Frogmore Street Stairwell
",358405.19,173039.01,-2.60002397838588,51.4547919820952
358461.62,173031.65,297,"Trenchard Street Car Park, Level 01/02 Trenchard Street Stairwell

",358461.62,173031.65,-2.59921100712438,51.4547299679175
358458.16,173033.35,298,"Trenchard Street Car Park, Level 02 Entrance to Trenchard Street Stairs
",358458.16,173033.35,-2.59926100137442,51.4547449982065
358436.79,173063.220000001,299,"Trenchard Street Car Park, Level 02 Lodge Street Car Bays
",358436.79,173063.22,-2.59957206424147,51.4550119948919
358440,173061,300,"Trenchard Street Car Park, Level 02 Entrance to Lodge Street Stairwell
",358440,173061,-2.59952560614957,51.4549922707813
358451,173056,301,"Trenchard Street Car Park, Level 02 Lodge Street Lift Lobby",358451,173056,-2.59936671144247,51.4549481250378
358448.03,173077.470000001,302,"Trenchard Street Car Park, Level 02 External Fire Exit Stairs
",358448.03,173077.47,-2.5994119832086,51.4551409509141
358437,173063,303,"Trenchard Street Car Park, Level 02 Vehicle Entry/Exit Ramp",358437,173063,-2.59956901611538,51.4550100322776
358405.19,173039.01,304,"Trenchard Street Car Park, Level 01/02 Frogmore Street Stairwell
",358405.19,173039.01,-2.60002397838588,51.4547919820952
358460,173031,305,"Trenchard Street Car Park, Level 01 Trenchard Street Pedestrian Entrance
",358460,173031,-2.59923424454909,51.454724004107
358458.16,173033.35,306,"Trenchard Street Car Park, Level 01 Entrance to Lodge Street Stairs",358458.16,173033.35,-2.59926100137442,51.4547449982065
358458.74,173036.9,307,"Trenchard Street Car Park, Level 01 Trenchard Street Pay Machines ",358458.74,173036.9,-2.59925307247546,51.4547769603524
358463.69,173038.42,308,"Trenchard Street Car Park, Level 01 Trenchard Street Disabled Lift External",358463.69,173038.42,-2.59918201424473,51.4547909921221
358436.79,173063.220000001,309,"Trenchard Street Car Park, Level 01 Entrance to Lodge Street Stairs & Pay Machines",358436.79,173063.22,-2.59957206424147,51.4550119948919
358440.09,173066.75,310,"Trenchard Street Car Park, Level 01 Lodge Street Stairwell
",358440.09,173066.75,-2.59952498843647,51.4550439778364
358446,173061,311,"Trenchard Street Car Park, Level 01 Lodge Street Lift Lobby",358446,173061,-2.59943925756898,51.4549927132488
358444.99,173062.82,312,"Trenchard Street Car Park, Level 01 Lodge Street Pay Machines #2
",358444.99,173062.82,-2.59945400733425,51.4550090030774
358451.41,173057.539999999,313,"Trenchard Street Car Park, Level 01 Lodge Street Pedestrian Entrance",358451.41,173057.54,-2.59936099236416,51.4549620019879
358405.19,173039.01,314,"Trenchard Street Car Park, Level 00/01 Frogmore Street Stairwell
",358405.19,173039.01,-2.60002397838588,51.4547919820952
358408,173037,315,"Trenchard Street Car Park, Level -02/-01 Frogmore Street Stairwell
",358408,173037,-2.59998330163311,51.4547741168298
358409,173034,316,"Trenchard Street Car Park, Level -01/00 Frogmore Street Stairwell
",358409,173034,-2.59996855651105,51.4547472165034
358385.34,173084.109999999,317,"Trenchard Street Car Park, Level 11 Park Row Stairwell block
",358385.34,173084.11,-2.60031496854454,51.455196027688
358400.03,173105.01,318,"Trenchard Street Car Park, Level 08 Park Row Vehicle Exit
",358400.03,173105.01,-2.60010602268125,51.4553850320707
358420,173035,319,"Trenchard Street Car Park, Level 06 Trenchard Street Stairs Facing Car Park Right





",358420,173035,-2.59981036960389,51.4547570196243
358420,173037,320,"Trenchard Street Car Park, Level 07 Entrance to Frogmore Street Stairs





",358420,173037,-2.59981060538162,51.4547750023789
358420,173037,321,"Trenchard Street Car Park, Level 08 Entrance to Frogmore Street Stairs






",358420,173037,-2.59981060538162,51.4547750023789
358410,173086,322,"Trenchard Street Car Park, Level 08 Park Row Vehicle Exit & Office PANO







",358410,173086,-2.59996029706996,51.4552148419083
358410,173086,323,"Trenchard Street Car Park, Level 08 Park Row Vehicle Exit & Toilet PANO







",358410,173086,-2.59996029706996,51.4552148419083
358410,173086,324,"Trenchard Street Car Park, Level 08 Park Row Vehicle Exit Facing Park Row Stairs & Ramp PANO








",358410,173086,-2.59996029706996,51.4552148419083
358410,173086,325,"Trenchard Street Car Park, Level 08 Park Row Vehicle Exit Facing Lodge Street Stairwell PANO









",358410,173086,-2.59996029706996,51.4552148419083
358420,173037,326,"Trenchard Street Car Park, Level 09 Entrance to Frogmore Street Stairs







",358420,173037,-2.59981060538162,51.4547750023789
358420,173086,327,"Trenchard Street Car Park, Level 10 Entrance to Frogmore Street Stairs








",358420,173086,-2.59981638201718,51.4552155798498
358444,173065,328,"Trenchard Street Car Park, Level 02 Lodge Street Stairwell
",358444,173065,-2.59946851169623,51.4550285312747
358409.03,173043.09,329,"Trenchard Street Car Park, Level 01 Park Row Far Corner
",358409.03,173043.09,-2.59996919668911,51.4548289503367
358413,173045,330,"Trenchard Street Car Park, Level 01 Park Row Far Corner Entrance to Stairwell

",358413,173045,-2.59991228814879,51.4548464168572
358436,173009,331,"Trenchard Street Car Park, Level 02 Frogmore Street Far Corner Parking Bays


",358436,173009,-2.59957704421371,51.4545244241444
358464,173035,332,"Trenchard Street Car Park, Level 03 Parking Bays



",358464,173035,-2.59917715020595,51.4547602644607
358412,173046,333,"Trenchard Street Car Park, Level 03 Park Row/Frogmore Stairwell/Parking Bays




",358412,173046,-2.59992679744174,51.454855334436
358412,173046,334,"Trenchard Street Car Park, Level 04 Park Row Stairs/Corner





",358412,173046,-2.59992679744174,51.454855334436
358437,173063,335,"Trenchard Street Car Park, Level 05 Entry/Exit PanoVu
",358437,173063,-2.59956901611538,51.4550100322776
358437,173063,336,"Trenchard Street Car Park, Level 05 Entrance to Frogmore Street Stairs

",358437,173063,-2.59956901611538,51.4550100322776
358437,173063,337,"Trenchard Street Car Park, Level 05 Left Hand Side PanoVu

",358437,173063,-2.59956901611538,51.4550100322776
358437,173063,338,"Trenchard Street Car Park, Level 05 Right Hand Side PanoVu


",358437,173063,-2.59956901611538,51.4550100322776
358420,173037,339,"Trenchard Street Car Park, Level 06 Entrance to Frogmore Street Stairs



",358420,173037,-2.59981060538162,51.4547750023789
358451,173053,340,"Trenchard Street Car Park, Level 06 Trenchard Street Stairs Facing Car Park Left




",358451,173053,-2.59936635805871,51.4549211509063
360750,175345,341,Muller Rd/ Glenfrome Rd - Street Lighting Column 64,360750,175345,-2.56653522918496,51.4756937540037
361109,175201,342,"Junction 2, M32, West - Street Lighting Column 77",361109,175201,-2.56135040211784,51.4744238040783
361205.58,175247.550000001,343,M32 Jtn 2 Roundabout (East),361205.58,175247.55,-2.55996500406724,51.4748489576689
359673,176780,344,Muller Road/ Filton Avenue - Street Lighting Column 8,359673,176780,-2.58220658548477,51.4885196755458
359861.4,176409.609999999,345,Muller Road/Downend Road,359861.4,176409.61,-2.57945103629419,51.4852029484961
359489.72,176899.949999999,346,Gloucester Road/Muller Road,359489.72,176899.95,-2.58485999618285,51.4895850063325
359895,169670,347,Newquay Rd (Lower) - Street Lighting Column 025,359895,169670,-2.57819991947383,51.4246089027963
359886,169869,348,Newquay Rd/ Ilminster Rd - Street Lighting Column 020,359886,169869,-2.5783521387694,51.4263975070524
359389,169940,349,DEPLOYABLE CAMERA - Jnc Newquay Road/Cossington Road,359389,169940,-2.58550869425021,51.4270004790445
362178.55,170430.42,350,Bath Road/West Town Lane,362178.55,170430.42,-2.5454399625515,51.4316029969025
361334.72,171143.18,351,adj t066,361334.72,171143.18,-2.55765604950568,51.4379545807743
361437.22,171034.380000001,352,by SIGN T087 across from C085,361437.22,171034.38,-2.55616953145216,51.4369833315625
362507.98,170218.380000001,353,next to C110,362507.98,170218.38,-2.54067880639803,51.4297184031727
362944.07,170063.66,354,Bath Road Park and Ride,362944.07,170063.66,-2.5343900017986,51.4283559921541
362148.73,170524.18,355,Bath Rd/ Brisington Hill - Street Lighting Column 13,362148.73,170524.18,-2.54587898640357,51.4324440290432
362380.79,170263.43,356,Flowers Hill,362380.79,170263.43,-2.54251306233949,51.4301150195999
360995,171623,357,Bath Road/Arnos Vale,360995,171623,-2.56259661247802,51.4422453940509
364166.82,169700,358,Hicks Gate Gyratory,364166.82,169700,-2.51676603293223,51.4251649950497
362631.67,170183.279999999,359,Bath Road/Emery Road,362631.67,170183.28,-2.53889598124995,51.4294109904141
361163.03,171550.93,360,Bath Road/Sandy Park Road,361163.03,171550.93,-2.56017107587844,51.44160896787
358278,171562,361,SS4 Camera. Jnc North Street and Cannon Street. SL Column 1.,358278,171562,-2.60168049656547,51.4415026111329
359381.98,169624.58,362,Filwood Broadway/Hartcliffe Road,359381.98,169624.58,-2.58557303041508,51.4241639955444
359421.01,174083.220000001,363,City Road/Dalrymple Road,359421.01,174083.22,-2.58552496053626,51.4642549398181
359101,173852,364,Stokes Croft/ City Rd Junction,359101,173852,-2.59010454927316,51.4621528133388
360913.97,169812.91,365,Wells Road/West Town Lane,360913.97,169812.91,-2.56356096814996,51.4259649776857
357006,179088,366,Crow Lane Column 19,357006,179088,-2.62089867157626,51.5090737291947
359671.62,174061.65,367,"Ludlow Close, St Paul's",359671.62,174061.65,-2.58191507870045,51.4640789779649
360545.9,173737.02,368,Pountney Drive Camera 05,360545.9,173737.02,-2.56929403989365,51.4612219816645
360545.9,173737.02,369,Pountney Drive Camera 04,360545.9,173737.02,-2.56929403989365,51.4612219816645
360545.9,173737.02,370,Pountney Drive Camera 03,360545.9,173737.02,-2.56929403989365,51.4612219816645
360506.5,173735.550000001,371,Pountney Drive 1st Floor Far End,360506.5,173735.55,-2.56986097978843,51.4612060052494
360506.5,173735.550000001,372,Pountney Drive 2nd Floor Far End,360506.5,173735.55,-2.56986097978843,51.4612060052494
360503.46,173711.66,373,"Lansdowne Court, Lift #2",360503.46,173711.66,-2.56990206653239,51.4609909900239
360503.46,173711.66,374,"Lansdowne Court, Lift #1",360503.46,173711.66,-2.56990206653239,51.4609909900239
360534.06,173653.140000001,375,"Pountney Drive Upper, Door Panel (34-42)",360534.06,173653.14,-2.56945509419026,51.4604669625139
360548.91,173740,376,Pountney Drive Lower Door Panel,360548.91,173740,-2.56925104801205,51.4612489864134
360503.46,173711.66,377,"Lansdowne Court, Laundry (Internal)",360503.46,173711.66,-2.56990206653239,51.4609909900239
360503.46,173711.66,378,"Lansdowne Court, Bridge Entrance (Internal)",360503.46,173711.66,-2.56990206653239,51.4609909900239
360503.46,173711.66,379,"Lansdowne Court, Main entrance Lobby (Internal)",360503.46,173711.66,-2.56990206653239,51.4609909900239
360503.46,173711.66,380,"Lansdowne Court, Main Entrance Door Panel",360503.46,173711.66,-2.56990206653239,51.4609909900239
360503.46,173711.66,381,"Lansdowne Court, Lift Lobby, Far (Internal)",360503.46,173711.66,-2.56990206653239,51.4609909900239
360551.03,173716.189999999,382,"Lansdowne Court, Car Park PTZ",360551.03,173716.19,-2.56921787666844,51.4610350519686
360551.03,173716.189999999,383,"Lansdowne Court, Rear Entrance (External Fixed) ",360551.03,173716.19,-2.56921787666844,51.4610350519686
360587.96,173678.189999999,384,"Lansdowne Court, Car Park (H5CP), PanoVu #1 - Cabinet",360587.96,173678.19,-2.56868209050073,51.4606959661837
360587.96,173678.189999999,385,"Lansdowne Court, Car Park (H5CP), PanoVu #2 - Footpath",360587.96,173678.19,-2.56868209050073,51.4606959661837
360587.96,173678.189999999,386,"Lansdowne Court, Car Park (H5CP), PanoVu #3 - Car Park South",360587.96,173678.19,-2.56868209050073,51.4606959661837
360587.96,173678.189999999,387,"Lansdowne Court, Car Park (H5CP), PanoVu #4 - Car Park Overview",360587.96,173678.19,-2.56868209050073,51.4606959661837
360540.65,173695.689999999,388,"Lansdowne Court, Car Park (H8CP), PanoVu #1 - Bike Storage/Seating area",360540.65,173695.69,-2.56936499227888,51.4608500037504
360540.65,173695.689999999,389,"Lansdowne Court, Car Park (H8CP), PanoVu #2 - Entrance road/Car Park South",360540.65,173695.69,-2.56936499227888,51.4608500037504
360540.65,173695.689999999,390,"Lansdowne Court, Car Park (H8CP), PanoVu #3 - Car Park North",360540.65,173695.69,-2.56936499227888,51.4608500037504
360540.65,173695.689999999,391,"Lansdowne Court, Car Park (H8CP), PanoVu #4 - Rear Entrance Car Park/Access Road",360540.65,173695.69,-2.56936499227888,51.4608500037504
358536,171786.01,392,SS4 Camera. Dean Crescent. SL Column 1 - DEPLOYABLE 3G CAMERA,358536,171786.01,-2.59799474308651,51.4435356920685
358838.7,173372.789999999,393,Lewin's Mead,358838.7,173372.79,-2.59382409600876,51.4578249555908
359137.3,172815.560000001,394,Attached to column 5,359137.3,172815.56,-2.58946205548995,51.4528364225653
359437,172491,395,Adj ICO29,359437,172491,-2.5851119343247,51.4499398510661
359167.91,172784.57,396,Victoria Street/Counterslip,359167.91,172784.57,-2.58901797403152,51.4525599985403
360369.51,177846.109999999,397,adj entrance to Beatrix Place,360369.51,177846.11,-2.57229546343318,51.4981544716847
359456.77,176591.01,398,Gloucester Road/Filton Avenue,359456.77,176591.01,-2.58529905613502,51.4868049659787
359411.64,169517.24,399,Filwood Broadway,359411.64,169517.24,-2.58513400498842,51.4232010125156
359388,169526,400,Creswicke Road mounted to street lighting column 13,359388,169526,-2.58547502418502,51.4232780774395
359090.07,173860.699999999,401,On Col.10,359090.07,173860.7,-2.59026288469183,51.4622302447984
359121,173947,402,Jamaica Street/ Stokes Croft,359121,173947,-2.58982769117634,51.4630084455988
359130.6,174071.880000001,403,Stokes Croft/Ashley Road,359130.6,174071.88,-2.58970399019255,51.4641319850412
358462.07,168929.050000001,404,Att Col 50,358462.07,168929.05,-2.59872131868426,51.4178434516388
358355.16,169039.890000001,405,Front of pavement near P45,358355.16,169039.89,-2.6002719610514,51.4188321752114
358041.84,170385.220000001,406,Parson Street/Hartcliffe Way,358041.84,170385.22,-2.60493893258957,51.43090499326
358065.55,169769.689999999,407,Hartcliffe Way opposite Bristol Waste - Column 20.,358065.55,169769.69,-2.60452447548625,51.4253725662977
356974.09,177637.42,408,On Col 24 Falcondale Road,356974.09,177637.42,-2.62118145130296,51.4960292629993
357080.72,177728.27,409,opp 007,357080.72,177728.27,-2.61965654263483,51.4968542120579
356941.04,177490,410,On Col.21 Falcondale Rd,356941.04,177490,-2.62163953044831,51.4947012998089
357853.02,173184.710000001,411,Triangle/Berkley Place,357853.02,173184.71,-2.60798801394243,51.4560610033555
357768.84,173146.59,412,"West End Car Park, Level 0 Pedestrian Entrance",357768.84,173146.59,-2.60919496718915,51.455711951365
357756.79,173135.68,413,"West End Car Park, Level 0 Vehicle Entrance",357756.79,173135.68,-2.60936708156644,51.4556129525761
357743.08,173157.15,414,"West End Car Park, Lift (Right)",357743.08,173157.15,-2.60956697069366,51.4558049694605
357743.08,173157.15,415,"West End Car Park, Lift (Centre)",357743.08,173157.15,-2.60956697069366,51.4558049694605
357743.08,173157.15,416,"West End Car Park, Lift (Left)",357743.08,173157.15,-2.60956697069366,51.4558049694605
357724.04,173115.83,417,"West End Car Park, Level 7B Roof Parking Area on Front Stairwell",357724.04,173115.83,-2.60983603379274,51.4554320184941
357756.12,173187.85,418,"West End Car Park, Level 6A Roof Parking Area",357756.12,173187.85,-2.60938298163247,51.456081981837
357757.14,173143.689999999,419,"West End Car Park, Level 6B Main Parking Area #1",357757.14,173143.69,-2.60936300511353,51.4556849996387
357770.65,173180.390000001,420,"West End Car Park, Level 5A Parking Area Upper End",357770.65,173180.39,-2.60917297037228,51.4560159951033
357757.14,173143.689999999,421,"West End Car Park, Level 5B Main Parking Area",357757.14,173143.69,-2.60936300511353,51.4556849996387
357770.65,173180.390000001,422,"West End Car Park, Level 4A Parking Area Upper End",357770.65,173180.39,-2.60917297037228,51.4560159951033
357757.14,173143.689999999,423,"West End Car Park, Level 4B Main Parking Area",357757.14,173143.69,-2.60936300511353,51.4556849996387
357770.65,173180.390000001,424,"West End Car Park, Level 3A Parking Area Upper End",357770.65,173180.39,-2.60917297037228,51.4560159951033
357757.14,173143.689999999,425,"West End Car Park, Level 3B Main Parking Area",357757.14,173143.69,-2.60936300511353,51.4556849996387
357770.65,173180.390000001,426,"West End Car Park, Level 2A Parking Area Upper End",357770.65,173180.39,-2.60917297037228,51.4560159951033
357757.14,173143.689999999,427,"West End Car Park, Level 2B Main Parking Area",357757.14,173143.69,-2.60936300511353,51.4556849996387
357769.01,173167.720000001,428,"West End Car Park, Level 2B Parking Area Opposite to Bridge Entrance/Exit",357769.01,173167.72,-2.60919505413303,51.4559019516375
357770.65,173180.390000001,429,"West End Car Park, Level 1A Parking Area Upper End",357770.65,173180.39,-2.60917297037228,51.4560159951033
357757.14,173143.689999999,430,"West End Car Park, Level 1B Main Parking Area",357757.14,173143.69,-2.60936300511353,51.4556849996387
357737.35,173161.76,431,"West End Car Park, Level 0 Vehicle Entry/Exit Ramp",357737.35,173161.76,-2.60964998992141,51.4558459900247
357746.67,173154.789999999,432,"West End Car Park, Level 7B Stairs and Lift Lobby",357746.67,173154.79,-2.60951502036466,51.4557840189823
357746.67,173154.789999999,433,"West End Car Park, Level 6A Stairs and Lift Lobby",357746.67,173154.79,-2.60951502036466,51.4557840189823
357723.06,173115.279999999,434,"West End Car Park, Level 6B Outside Front Stairwell Entrance",357723.06,173115.28,-2.60985007177931,51.4554269997373
357746.67,173154.789999999,435,"West End Car Park, Level 6B Stairs and Lift Lobby",357746.67,173154.79,-2.60951502036466,51.4557840189823
357746.67,173154.789999999,436,"West End Car Park, Level 5A Stairs and Lift Lobby",357746.67,173154.79,-2.60951502036466,51.4557840189823
357723.06,173115.279999999,437,"West End Car Park, Level 5B Outside front Stairwell Entrance",357723.06,173115.28,-2.60985007177931,51.4554269997373
357746.67,173154.789999999,438,"West End Car Park, Level 5B Stairs and Lift Lobby",357746.67,173154.79,-2.60951502036466,51.4557840189823
357746.67,173154.789999999,439,"West End Car Park, Level 4A Stairs and Lift Lobby",357746.67,173154.79,-2.60951502036466,51.4557840189823
357723.06,173115.279999999,440,"West End Car Park, Level 4B Outside Front Stairwell Entrance",357723.06,173115.28,-2.60985007177931,51.4554269997373
357746.67,173154.789999999,441,"West End Car Park, Level 4B Stairs and Lift Lobby",357746.67,173154.79,-2.60951502036466,51.4557840189823
357746.67,173154.789999999,442,"West End Car Park, Level 3A Stairs and Lift Lobby",357746.67,173154.79,-2.60951502036466,51.4557840189823
357723.06,173115.279999999,443,"West End Car Park, Level 3B Outside Front Stairwell Entrance",357723.06,173115.28,-2.60985007177931,51.4554269997373
357746.67,173154.789999999,444,"West End Car Park, Level 3B Stairs and Lift Lobby",357746.67,173154.79,-2.60951502036466,51.4557840189823
357746.67,173154.789999999,445,"West End Car Park, Level 2A Stairs and Lift Lobby",357746.67,173154.79,-2.60951502036466,51.4557840189823
357723.06,173115.279999999,446,"West End Car Park, Level 2B Outside Front Stairwell Entrance",357723.06,173115.28,-2.60985007177931,51.4554269997373
357746.67,173154.789999999,447,"West End Car Park, Level 2B Stairs and Lift Lobby",357746.67,173154.79,-2.60951502036466,51.4557840189823
357751.69,173157.189999999,448,"West End Car Park, Level 2B Pay Station",357751.69,173157.19,-2.60944306057908,51.4558059745663
357782.38,173179.4,449,"West End Car Park, Level 2B Entry Exit Bridge Right",357782.38,173179.4,-2.60900403296645,51.4560079723971
357782.38,173179.4,450,"West End Car Park, Level 2B Entry Exit Bridge Left",357782.38,173179.4,-2.60900403296645,51.4560079723971
357746.67,173154.789999999,451,"West End Car Park, Level 1A Stairs and Lift Lobby",357746.67,173154.79,-2.60951502036466,51.4557840189823
357723.06,173115.279999999,452,"West End Car Park, Level 1B Outside Front Stairwell Entrance",357723.06,173115.28,-2.60985007177931,51.4554269997373
357746.67,173154.789999999,453,"West End Car Park, Level 1B Stairs and Lift Lobby",357746.67,173154.79,-2.60951502036466,51.4557840189823
357774.07,173174.02,454,"West End Car Park, Level 1B Vehicle Entrance",357774.07,173174.02,-2.60912298586556,51.4559589763437
357769.76,173174.390000001,455,"West End Car Park, Level 1 Vehicle Exit",357769.76,173174.39,-2.60918505987691,51.4559619802334
357764.77,173151.08,456,"West End Car Park, Level 0 Lift Lobby",357764.77,173151.08,-2.60925408082986,51.4557520176241
357764.77,173151.08,457,"West End Car Park, Level 0 POF",357764.77,173151.08,-2.60925408082986,51.4557520176241
357752.31,173131.27,458,"West End Car Park, Level 0 Vehicle Exit",357752.31,173131.27,-2.60943102832738,51.4555729648721
364125,175767,459,"Ledbury Road, Laundry
",364125,175767,-2.5179852035399,51.4797123555103
364173,175734,460,"Ledbury Road PTZ #5 (Rear of Block #1)
",364173,175734,-2.51729069321987,51.4794186966922
364128,175775,461,"Ledbury Road PTZ #6 (Vehicle Gates Block #2)

",364128,175775,-2.51794281911234,51.4797844755999
364108,175718,462,"Ledbury Road PTZ #8 (Rear of Block #3)


",364108,175718,-2.51822500590556,51.4792707070101
364089,175747,463,"Ledbury Road PTZ #9 (Top Rear of Block #3)



",364089,175747,-2.51850153784793,51.4795302419984
364209,175745,464,"Ledbury Road Block 1 Alleyway
",364209,175745,-2.51677344149869,51.4795198842313
364158,175757,465,"Ledbury Road Block 2 Alleyway
",364158,175757,-2.51750901506965,51.4796245409768
364108,175776,466,"Ledbury Road Block 4 Alleyway
",364108,175776,-2.51823090445254,51.4797921948887
364080.75,175774.060000001,467,Ledbury Road Block 04 Front Door External,364080.75,175774.06,-2.51862308459935,51.4797730179278
364094.41,175720.58,468,Ledbury Road Block 03 Rear Door External,364094.41,175720.58,-2.51842095080014,51.4792930395704
364099.49,175723.32,469,Ledbury Road Block 03 2nd Floor Stairs,364099.49,175723.32,-2.51834808256569,51.4793179986301
364099.49,175723.32,470,Ledbury Road Block 03 1st/2nd Floor Stairs,364099.49,175723.32,-2.51834808256569,51.4793179986301
364099.49,175723.32,471,Ledbury Road Block 03 Ground/1st Floor Stairs,364099.49,175723.32,-2.51834808256569,51.4793179986301
364099.49,175723.32,472,Ledbury Road Block 03 Ground Floor Stairs,364099.49,175723.32,-2.51834808256569,51.4793179986301
364131.16,175751.9,473,Ledbury Road Block 02 3rd Floor Stairs,364131.16,175751.9,-2.51789496998775,51.4795769804604
364131.16,175751.9,474,Ledbury Road Block 02 2nd/3rd Floor Stairs,364131.16,175751.9,-2.51789496998775,51.4795769804604
364131.16,175751.9,475,Ledbury Road Block 02 1st/2nd Floor Stairs,364131.16,175751.9,-2.51789496998775,51.4795769804604
364131.16,175751.9,476,Ledbury Road Block 02 Ground/1st Floor Stairs,364131.16,175751.9,-2.51789496998775,51.4795769804604
364131.16,175751.9,477,Ledbury Road Block 02 Ground Floor Stairs,364131.16,175751.9,-2.51789496998775,51.4795769804604
364183.68,175735.51,478,Ledbury Road Block 01 Rear Door External,364183.68,175735.51,-2.51713706422011,51.4794329513843
364188.29,175738.6,479,Ledbury Road Block 01 2nd Floor Stairs,364188.29,175738.6,-2.51707099791879,51.479461026705
364188.29,175738.6,480,Ledbury Road Block 01 1st/2nd Floor Stairs,364188.29,175738.6,-2.51707099791879,51.479461026705
364188.29,175738.6,481,Ledbury Road Block 01 Ground/1st Floor Stairs,364188.29,175738.6,-2.51707099791879,51.479461026705
364188.29,175738.6,482,Ledbury Road Block 01 Ground Floor Stairs,364188.29,175738.6,-2.51707099791879,51.479461026705
364121.2,175747.970000001,483,Ledbury Road PTZ #3 (Rear of Block 02),364121.2,175747.97,-2.5180379857762,51.4795410119211
364136.86,175753.310000001,484,Ledbury Road PTZ #2 (Front of Block 02),364136.86,175753.31,-2.51781303818747,51.4795900203237
364192.05,175739.68,485,Ledbury Road PTZ #1 (Front of Block 01),364192.05,175739.68,-2.51701696686839,51.4794709757951
359788.62,173202.390000001,486,Att to Column 15,359788.62,173202.39,-2.58013308569552,51.4563614143569
359798.87,173215.390000001,487,Old Market/ West Street,359798.87,173215.39,-2.57998704714787,51.4564790335471
358738.47,173255.83,488,Rupert Street/Lewins Mead,358738.47,173255.83,-2.59525297189519,51.4567659941191
359580.53,174094.960000001,489,"Carr House Lower Door (External), Paul's",359580.53,174094.96,-2.58323008602327,51.4643719589616
359550.49,174134.02,490,"Carr House Upper PTZ, St Paul's",359550.49,174134.02,-2.58366697796583,51.4647210082251
359550.17,174129.130000001,491,"Carr House Upper Door (External), St Paul's",359550.17,174129.13,-2.58367102341118,51.4646770174467
358210,178389,492,Greystoke Avenue/ Southmead Library (Aldi),358210,178389,-2.60346775399853,51.5028796202013
358288.95,178419.640000001,493,"Arneside Road (West), (Southmead)",358288.95,178419.64,-2.60233397289695,51.5031609504607
358311.31,178437.699999999,494,"Arneside Road (East), (Southmead)",358311.31,178437.7,-2.60201397508332,51.503324981309
358215,172996,495,Park Street (Middle) - Street Lighting Column 006,358215,172996,-2.60275600184648,51.4543911939511
358854.29,167410.560000001,496,Redwood House Front Door PTZ,358854.29,167410.56,-2.59290400167216,51.4042189390515
358901.97,167448.550000001,497,Redwood House Rear Door (External Static),358901.97,167448.55,-2.59222297569847,51.4045639909646
358854.29,167410.560000001,498,Redwood House Front Door (External Static),358854.29,167410.56,-2.59290400167216,51.4042189390515
358873.54,167425.09,499,Redwood House Rear Lobby,358873.54,167425.09,-2.5926289563399,51.404350985043
358873.54,167425.09,500,Redwood House Lift 02,358873.54,167425.09,-2.5926289563399,51.404350985043
358873.54,167425.09,501,Redwood House Lift 01,358873.54,167425.09,-2.5926289563399,51.404350985043
358873.54,167425.09,502,Redwood House Lift Lobby,358873.54,167425.09,-2.5926289563399,51.404350985043
358873.54,167425.09,503,Redwood House Front Lobby,358873.54,167425.09,-2.5926289563399,51.404350985043
358870.04,167422.34,504,Redwood House Front Door Panel,358870.04,167422.34,-2.59267895214322,51.404326004033
358901.97,167448.550000001,505,Chestnut House Front Door (External Static),358901.97,167448.55,-2.59222297569847,51.4045639909646
358915.78,167565.550000001,506,Rowan House Front Door Panel,358915.78,167565.55,-2.59203801241915,51.4056169782356
358874.11,167427.199999999,507,Redwood House Laundry,358874.11,167427.2,-2.59262100707685,51.404369998204
358875.42,167425.960000001,508,Hartcliffe Redwood House Ground Floor Stairwell,358875.42,167425.96,-2.59260203096318,51.4043589444011
358387,172938,509,Frogmore Street outside The Hatchet,358387,172938,-2.60027383930335,51.453882420098
356857.66,174137.359999999,510,On Col 41,356857.66,174137.36,-2.62243015550806,51.4645513143596
356653.45,173990.6,511,On Col 34,356653.45,173990.6,-2.6253516193889,51.4632160899889
358494.67,172833.640000001,512,Denmark Street,358494.67,172833.64,-2.59871207696543,51.4529520201751
358387.96,172937.5,513,Denmark Avenue (Hatchet),358387.96,172937.5,-2.60025996490703,51.4538779952973
359653.55,174130.189999999,514,"Grosvenor Road/Winkworth Place PTZ, St Paul's",359653.55,174130.19,-2.58218302551909,51.4646939537307
359509,173984,515,"Grosvenor Rd, St Pauls.",359509,173984,-2.58424698805029,51.4633691440833
359653.55,174130.189999999,516,"REDEPLOYABLE - Grosvenor Road/Winkworth Place PTZ, St Paul's",359653.55,174130.19,-2.58218302551909,51.4646939537307
360863.57,173036.109999999,517,Harwood House Rear Car Park PTZ,360863.57,173036.11,-2.5646440402214,51.4549419669648
358709.98,169283.43,518,Inns Court,358709.98,169283.43,-2.59519806573982,51.421047952946
360602.87,173719.560000001,519,"Easton Road, Door Panel (123-147 Odds)",360602.87,173719.56,-2.56847209600096,51.4610689784472
360602.87,173719.82,520,Easton Road Laundry (Internal),360602.87,173719.82,-2.56847212497428,51.4610713161838
358461.2,169150.109999999,521,Novers Lane,358461.2,169150.11,-2.59876010916479,51.4198310025158
357687,168493,522,MetroBus Whitchurch Lane/ SBL Junction - Street Lighting Column ?,357687,168493,-2.60981490280288,51.413865148611
357676.98,168485.73,523,Whitchurch Road/Anton Bantock Way,357676.98,168485.73,-2.60995810873352,51.4137990291143
357526,168468,524,Cater Road - Camera 19 -WEC pole - Whitchurch Lane ,357526,168468,-2.61212698930068,51.4136282542927
357526,168468,525,Cater Road - Camera 19 -WEC pole - Whitchurch Lane ,357526,168468,-2.61212698930068,51.4136282542927
357526,168468,526,Cater Road - Camera 19 -WEC pole - Whitchurch Lane ,357526,168468,-2.61212698930068,51.4136282542927
357688,168487,527,Cater Road - Camera 16 - Column 47 - Whitchurch Lane ,357688,168487,-2.60979979888099,51.4138112755831
357688,168487,528,Cater Road - Camera 17 - Column 47 - Whitchurch Lane ,357688,168487,-2.60979979888099,51.4138112755831
357688,168487,529,Cater Road - Camera 18 - Column 47 - Whitchurch Lane ,357688,168487,-2.60979979888099,51.4138112755831
357526,168468,530,Cater Road - Camera 19 -WEC pole - Whitchurch Lane ,357526,168468,-2.61212698930068,51.4136282542927
360415.55,173843.029999999,531,"Twinnell House, Lift #2",360415.55,173843.03,-2.57118210777327,51.4621660113722
360415.55,173843.029999999,532,"Twinnell House, Lift #1",360415.55,173843.03,-2.57118210777327,51.4621660113722
360410.1,173838.960000001,533,"Twinnell House, Main entrance door panel",360410.1,173838.96,-2.57126009813452,51.4621290340341
360415.55,173843.029999999,534,"Twinnell House, Laundry Lobby",360415.55,173843.03,-2.57118210777327,51.4621660113722
360415.55,173843.029999999,535,"Twinnell House, Main entrance (internal)",360415.55,173843.03,-2.57118210777327,51.4621660113722
360404.57,173841.560000001,536,"Twinnell House, Main entrance (external)",360404.57,173841.56,-2.57133998724803,51.4621520230534
360415.55,173843.029999999,537,"Twinnell House, Lift lobby",360415.55,173843.03,-2.57118210777327,51.4621660113722
360418.03,173812.869999999,538,Wills Drive Door Panel,360418.03,173812.87,-2.57114303287156,51.4618950076479
360415.55,173843.029999999,539,"Twinnell House, Laundry",360415.55,173843.03,-2.57118210777327,51.4621660113722
360411.57,173822.26,540,"Twinnell House, Front Right PTZ",360411.57,173822.26,-2.5712370683331,51.4619789824096
357448.45,172468.789999999,541,On Col 14,357448.45,172468.79,-2.61372413722149,51.4495935404844
357573.79,172470.720000001,542,opp 009,357573.79,172470.72,-2.6119207469569,51.4496203403064
357499.92,172456.73,543,Hotwells Road/Mardyke,357499.92,172456.73,-2.61298204501244,51.449488991239
357825.04,172569.68,544,Jacobs Wells (Roundabout),357825.04,172569.68,-2.60831707681721,51.4505289482619
357318,172487,545,Hotwell Rd/ Spar - Street Lighting Column 20,357318,172487,-2.61560348627399,51.4497474057806
357144,172549.1,546,Hotwells Gyratory North - Street Lighting Column 029,357144,172549.1,-2.61811485104037,51.4502925510783
356906.57,172496.439999999,547,Rose of Denmark Hotwell Road,356906.57,172496.44,-2.62152508519027,51.4498010178078
357294.79,172491.710000001,548,Hotwells Road/ Pooles Wharf,357294.79,172491.71,-2.6159380438249,51.4497879958726
359853.24,169141.039999999,549,Bamfield-Alverstoke,359853.24,169141.04,-2.57874007744219,51.4198499608845
359874.48,167831.5,550,Bamfield (Upper),359874.48,167831.5,-2.57828597545495,51.4080769905125
360063.8,168682.9,551,Bamfield - mounted to SL22,360063.8,168682.9,-2.57566025749631,51.4157455658871
357277.7,179198.779999999,552,On Column 2,357277.7,179198.78,-2.6169972936776,51.510090408243
358809.32,170944.470000001,553,Opp P045,358809.32,170944.47,-2.59396453195529,51.4359896539398
360829.76,174681.529999999,554,Stapleton Road/St Marks Road,360829.76,174681.53,-2.56531303402113,51.4697339958361
360634.27,174391.529999999,555,Stapleton Road/Warwick Road,360634.27,174391.53,-2.56809497206528,51.4671130479219
360549.05,174214.789999999,556,Stapleton Road/Kensington Park,360549.05,174214.79,-2.56930202750327,51.4655179734893
360155.41,173607.949999999,557,"Stapleton Road William Hill PTZ, Easton",360155.41,173607.95,-2.57489999597252,51.4600340030447
360256.77,173722.82,558,"Stapleton Road/Clifden Place PTZ, Easton",360256.77,173722.82,-2.57345403461279,51.4610739931228
360474.25,174047.32,559,Stapleton Road/Lansdowne Road,360474.25,174047.32,-2.57036003887148,51.4640069632223
360909.16,174726.960000001,560,Stapleton Road/Robertson Road,360909.16,174726.96,-2.56417500878377,51.4701479407136
360420.01,173871.470000001,561,"Twinnell House, Rear Left PTZ",360420.01,173871.47,-2.57112109675265,51.4624220373175
360407.08,173861.34,562,"Twinnell House, Front Left PTZ",360407.08,173861.34,-2.57130607500875,51.4623300474328
360788.1,174584.98,563,Stapleton Road/Robert Street,360788.1,174584.98,-2.565902036589,51.4688630302561
360673.46,174465.07,564,Stapleton Road (Cotton and Sons),360673.46,174465.07,-2.56753901741802,51.4677769724226
360165,173637,565,SS5 DEPLOYABLE CAMERA - Stapleton Road/Milsom Street. SL 5,360165,173637,-2.57476524233964,51.4602958791285
360220,173705,566,SS5 DEPLOYABLE CAMERA - Stapleton Road/Webb Street. SL 7,360220,173705,-2.57398127485673,51.4609111739149
360735,174528,567,Stapleton Road Opposite train station entrance. SL31,360735,174528,-2.56666011687044,51.4683470448437
360735,174528,568,Stapleton Road Opposite train station entrance. SL31,360735,174528,-2.56666011687044,51.4683470448437
359278.73,172157.18,569,Redcliffe Proctor House Rear PTZ,359278.73,172157.18,-2.58735106611385,51.4469270366091
359301.84,172178.68,570,Redcliffe Proctor House Front PTZ,359301.84,172178.68,-2.5870210068911,51.4471220137673
359224.31,173647.939999999,571,Brunswick Square (Looks Down To Bellyfull Caf�),359224.31,173647.94,-2.58830603182971,51.4603269698356
359001,173827,572,Junction Jamaica Street and Lower Gay Street,359001,173827,-2.5915410305542,51.4619207610726
359436.87,171995.529999999,573,York Road/St Luke's Road,359436.87,171995.53,-2.58505711629033,51.4454850297309
359616.04,177260.41,574,Att C72,359616.04,177260.41,-2.58308196834053,51.492834955663
359341.51,176243.92,575,Gloucester Road/Ashley Down Road,359341.51,176243.92,-2.58691900218906,51.4836759937103
358494,172771,576,"College Green Ped Crossing, Junct Trinity St",358494,172771,-2.59871434942534,51.4523887507385
358305,172861,577,CITY HALL - Camera 5 - Door 4 (College Green),358305,172861,-2.60144480345078,51.4531840229641
358320,172843,578,CITY HALL - Camera 6 - PTZ Main Ramp (Park Street),358320,172843,-2.60122681154672,51.4530232876385
358312,172839,579,CITY HALL - Camera 7 - Main Ramp Barrier (Park Street),358312,172839,-2.60134146508571,51.4529867303909
358312,172838,580,CITY HALL - Camera 7a - Park Street entrance,358312,172838,-2.60134134687467,51.4529777390111
358280,172806,581,CITY HALL - Camera 8 - PTZ Park Street ,358280,172806,-2.60179807393535,51.4526876471945
358280,172787,582,CITY HALL - Camera 9 - Main Entrance to Building ,358280,172787,-2.6017958261053,51.4525168109798
358279,172784,583,CITY HALL - Camera 10 - Main Ramp front of building (Deanery Road side),358279,172784,-2.60180986204871,51.4524897628222
358269,172774,584,CITY HALL - Camera 11 - PTZ Main Ramp front of building (Deanery Road side),358269,172774,-2.60195258726732,51.4523991087476
358950.49,171996.050000001,585,Att to Column 1,358950.49,171996.05,-2.59205542253144,51.4454545001286
358676,172012,586,Coronation Road/Dean Lane,358676,172012,-2.59600675491445,51.4455778548841
360357.41,173763.52,587,"Laundry, Ashman Close",360357.41,173763.52,-2.57201004406224,51.4614470265976
360359.56,173754.050000001,588,"1st Floor, Ashman Close",360359.56,173754.05,-2.57197803547943,51.461362030053
360337.28,173792.039999999,589,"Twinnell House, Car Park PTZ",360337.28,173792.04,-2.57230298825585,51.4617020428801
360338.03,173790.58,590,Ashman Close Lower Door (External).,360338.03,173790.58,-2.57229202911881,51.4616889683293
360359.56,173754.050000001,591,Ashman Close 2nd Floor 2nd Cam (Internal),360359.56,173754.05,-2.57197803547943,51.461362030053
360359.56,173754.050000001,592,Ashman Close 2nd Floor 1st Cam (Internal),360359.56,173754.05,-2.57197803547943,51.461362030053
352253.72,177164.369999999,593,Portway A4,352253.72,177164.37,-2.68910993067856,51.4913959505475
361758.08,173652.800000001,594,"Chalks Road Car Park, ANPR Entrance",361758.08,173652.8,-2.5518369536335,51.4605479766034
361758.08,173652.800000001,595,"Chalks Road Car Park, Underneath RHS",361758.08,173652.8,-2.5518369536335,51.4605479766034
358907,172985,596,"St Nicks Market - Front office door/office
",358907,172985,-2.59279595582414,51.4543431745252
358884,172985,597,St Nicks Market - South Arcade entrance All Saints Lane,358884,172985,-2.59312695400589,51.4543414967924
358903,172950,598,St Nicks Market - Covered Market All Saints Lane entrance - Stalls 81-94,358903,172950,-2.59284944683917,51.4540281845237
358895.7,172960.810000001,599,St Nicks Market - Covered Market All Saints Lane Entrance - Stalls 66-80 ,358895.7,172960.81,-2.59295576048293,51.4541248488922
358891,172968,600,St Nicks Market - Covered Market All Saints Lane entrance - Stalls 51-65,358891,172968,-2.59302423604841,51.4541891540537
358895,172982,601,"St Nicks Market - Glass Arcade North PanoVu - 4167, 4169, 4170, 4195",358895,172982,-2.59296830126445,51.4543153251646
358895,172982,602,"St Nicks Market - Glass Arcade North PanoVu - 4167, 4169, 4170, 4195",358895,172982,-2.59296830126445,51.4543153251646
358895,172982,603,"St Nicks Market - Glass Arcade North PanoVu - 4167, 4169, 4170, 4195",358895,172982,-2.59296830126445,51.4543153251646
358895,172982,604,"St Nicks Market - Glass Arcade North PanoVu - 4167, 4169, 4170, 4195",358895,172982,-2.59296830126445,51.4543153251646
358892,172972,605,St Nicks Market - All Saints Lane By The Crown pub,358892,172972,-2.59301031059916,51.4542251925241
358894,172973,606,St Nicks Market - All Saints Lane By The Crown pub (Rummer Store),358894,172973,-2.59298164465383,51.4542343298022
358864,173013,607,St Nicks Market - Exchange - All Saints Entrance,358864,173013,-2.59341804101496,51.4545917957506
361805.09,173612.970000001,608,"Chalks Road Car Park, Car Park Entrance",361805.09,173612.97,-2.55115599535488,51.4601930346628
361805.09,173612.970000001,609,"Chalks Road Car Park, Bottom PTZ",361805.09,173612.97,-2.55115599535488,51.4601930346628
361824.81,173564.99,610,Church Road/Chalks Road,361824.81,173564.99,-2.550866965372,51.4597629700775
361781.13,173632.939999999,611,"Chalks Road Car Par, Underneath LHS",361781.13,173632.94,-2.55150302649339,51.4603709703399
361781.13,173632.939999999,612,"Chalks Road Car Park, Front Right of Zedpods",361781.13,173632.94,-2.55150302649339,51.4603709703399
361805.09,173612.970000001,613,"Chalks Road Car Park, Front Left Zedpods",361805.09,173612.97,-2.55115599535488,51.4601930346628
361805.09,173612.970000001,614,"Chalks Road Car Park, Far Right Of Building Zedpods",361805.09,173612.97,-2.55115599535488,51.4601930346628
361805.09,173612.970000001,615,"Chalks Road Car Park, Far Left Of Building Zedpods",361805.09,173612.97,-2.55115599535488,51.4601930346628
361758,173655,616,"Chalks Road Car Park, Street Light on island at the far end",361758,173655,-2.55183834367823,51.4605677516501
359424.04,173776.130000001,617,Portland Square (North),359424.04,173776.13,-2.5854460082856,51.461493994469
361141.78,172953.57,618,"Barton House, Vehicle Gates (Static)",361141.78,172953.57,-2.56063098946324,51.4542190139934
361162.56,172908.810000001,619,"Barton House, Marsh Lane PTZ",361162.56,172908.81,-2.56032701941395,51.4538179906699
361141.78,172953.57,620,"Barton House, Vehicle Gate PTZ",361141.78,172953.57,-2.56063098946324,51.4542190139934
358198.53,172709.17,621,"College Street Car park, Rear Right Upper Internal",358198.53,172709.17,-2.60295902305353,51.4518109759265
358201.99,172715.26,622,"CAMERA 14 - College Street Car Park, Cycle Racks Upper/Left (above final exit arrow, looking down first corridor)",358201.99,172715.26,-2.60290995340493,51.4518659900084
358191.19,172712.01,623,"College Street Car Park, Central Lower/Right Internal",358191.19,172712.01,-2.60306498699937,51.4518359670646
358209.26,172712.529999999,624,"CAMERA 6 - College Street Car Park, Upper Right Rear Internal (looking towards permit bay 3 from opposite corner)",358209.26,172712.53,-2.60280500985597,51.4518419825921
358195.33,172717.09,625,"CAMERA 21 - College Street Car Park, Central Cycle Racks Middle (next to end of red pipe, looking up central walkway)",358195.33,172717.09,-2.60300601206864,51.4518819503304
358271,172729,626,CITY HALL - Camera 12 - Exit (Deanery Road),358271,172729,-2.60191848068356,51.451994644709
358252,172713,627,CITY HALL - Camera 13 - Door 1 (Deanery Road),358252,172713,-2.60219000960735,51.4518493756998
358581.76,173193.16,628,Colston Street (Christmas Steps),358581.76,173193.16,-2.59750099152053,51.45619100814
358553.5,172982.85,629,Colston Street/Pipe Lane,358553.5,172982.85,-2.59788299762715,51.4542979538307
358440.07,167438.630000001,630,Walwyn Gardens (External Static),358440.07,167438.63,-2.59886198120069,51.404440989781
357546,170449.859999999,631,cannot confirm bedminister rd jnct,357546,170449.86,-2.61207890460745,51.4314490237148
357420.23,170183.529999999,632,Cross Hands Bedminster Down,357420.23,170183.53,-2.6138559360854,51.4290449848483
357537.51,170457.039999999,633,Bedminster Road/Bedminster Down Road,357537.51,170457.04,-2.61220188939303,51.4315129386896
357665.7,170617.43,634,Att C1,357665.7,170617.43,-2.61037722197104,51.4329646372735
359494.36,173557.369999999,635,Between 15 and 16,359494.36,173557.37,-2.58440872445622,51.4595320981885
359486.69,173571.75,636,next to 012,359486.69,173571.75,-2.58452076949085,51.4596608430503
359244.86,173524.66,637,Bond Street/York Street,359244.86,173524.66,-2.58799599871685,51.4592199988627
359110.68,173549.1,638,St James Barton/Bond Street (Low Level),359110.68,173549.1,-2.58993007384532,51.4594300270936
358584,172774,639,Centre/ Queen Square end - Street Lighting Column (081A),358584,172774,-2.59741955263822,51.4524223465515
359605.63,174132.02,640,"Carr House/Winkworth Place PTZ, St Paul's (Carr House)",359605.63,174132.02,-2.58287302706143,51.4647069776338
359062.3,173122.970000001,641,Wine Street/Union Street (Top),359062.3,173122.97,-2.59057698998731,51.4555950189628
358778.47,167703.35,642,"Oak House Front Door external dome
Already cleaned when upgraded",358778.47,167703.35,-2.59402802924056,51.4068459706756
361063.56,174798.189999999,643,Fishponds Road/East Park/Argyle Road,361063.56,174798.19,-2.56196007496759,51.4707990011565
361321.25,174914.34,644,Mayfield Primary School (East Park),361321.25,174914.34,-2.55826297086499,51.4718609570241
360359,176886,645,DEPLOYABLE CAMERA - Fly tipping - Lockleaze road jnc Wordsworth Road - mounted to lighting column 12,360359,176886,-2.57233859985101,51.4895213626671
358827.57,173002.310000001,646,Corn Street/ Wine Street (Top end of St Nicholas Market),358827.57,173002.31,-2.59394106958441,51.4544930173242
358847,173010,647,St Nicks Market - Corn Street Entrance to Exchange Hall,358847,173010,-2.59366234355087,51.4545635803476
364073.57,175770.220000001,648,Ledbury Road Block 04 Rear Door External,364073.57,175770.22,-2.51872607971193,51.4797380347063
360375,174247,649,Warwick Rd/ Waverley St/ Oxford Place (By Millpond Primary School),360375,174247,-2.57181108469603,51.4657953817558
359783.33,177720.32,650,Filton Road/Monks Park Avenue,359783.33,177720.32,-2.580724992204,51.4969819674698
359753.21,177675.619999999,651,opp 013,359753.21,177675.62,-2.58115374587982,51.4965779196414
359926.87,177038.859999999,652,between 008 and traffic lights,359926.87,177038.86,-2.57857973355264,51.4908651782983
360967.25,177035.949999999,653,Gainsborough Square (Lockleaze),360967.25,177035.95,-2.56359495090886,51.4909120102034
358469.84,172225.689999999,654,"M Shed, Princes Wharf (North)",358469.84,172225.69,-2.59899807364907,51.4474839993625
358605.12,172298.77,655,"M Shed, Princes Wharf (South)",358605.12,172298.77,-2.59706005191202,51.4481510144416
358532,172224,656,M-Shed Rear-Centre-Left Ext,358532,172224,-2.59810345561347,51.4474733806209
358619,172273,657,"M-Shed Rear-Right-Side Ext
",358619,172273,-2.59685732510077,51.4479203346413
358597,172261,658,M-Shed Rear-Centre-Right Ext,358597,172261,-2.59717248632371,51.4478108267407
358596,172259,659,"M-Shed Rear-Right-Corner Ext
",358596,172259,-2.59718664212229,51.4477927712225
358472,172217,660,M-Shed Front-Right-Side Ext,358472,172217,-2.59896597683274,51.4474060264706
358511,172251,661,"M-Shed Front-Right-Corner Ext
",358511,172251,-2.59840878038482,51.4477145931811
358532,172261,662,M-Shed Front-Centre-Right Ext,358532,172261,-2.59810777805664,51.4478060487258
358574,172285,663,"M-Shed Front-Centre-Left Ext
",358574,172285,-2.59750623684011,51.4480249216768
358574,172286,664,"M-Shed Front-Left Ext
",358574,172286,-2.59750635355358,51.4480339127085
358614,172296,665,M-Shed Front-Left-Corner Ext,358614,172296,-2.5969319527529,51.4481267613414
358533,172263,666,"M-Shed Rear-Left-Side Ext
",358533,172263,-2.59809362259743,51.4478241043495
358483,172201,667,M-Shed Rear-Left-Corner Ext,358483,172201,-2.59880582681671,51.4472629802793
359391.05,173281.810000001,668,Lower Castle Street/ Broad Weir,359391.05,173281.81,-2.58586398007491,51.4570469978196
359402.2,169639.4,669,Hartcliffe Road junction with Filwood Broadway. Mounted to street lighting column 13.,359402.2,169639.4,-2.58528392368329,51.4242986970278
359074.73,172353.68,670,Redcliffe Hill Roundabout,359074.73,172353.68,-2.5903090659685,51.4486790063494
359047.39,172407.58,671,Att to column 19,359047.39,172407.58,-2.59070869481172,51.4491616385009
357575,172141,672,MetroBus Wapping Wharf/ Gaol Ferry Bridge - Lamp Post,357575,172141,-2.61186383833592,51.446655904475
358462,172073,673,Cumberland Road Vauxhall Bridge,358462,172073,-2.59909301814183,51.4461105817879
357188,172092,674,MetroBus Cumberland Rd VMS,357188,172092,-2.61742636023881,51.4461860801531
359753,167887,675,601 Whitchurch Lane PTZ Camera mounted to Unit 1.,359753,167887,-2.58003871870579,51.4085674110482
359808,167911,676,601 Whitchurch Lane PTZ Camera mounted to Unit 9.,359808,167911,-2.57925073363437,51.4087870993027
358485.52,167408,677,Walwyn Gardens PTZ,358485.52,167408,-2.59820501550678,51.4041689299113
360926.91,173131.5,678,"Beaufort House, Main Entrance PTZ",360926.91,173131.5,-2.56374297892253,51.4558040312364
358969.81,173174.9,679,The Pithay/Fairfax Street,358969.81,173174.9,-2.59191410884062,51.4560552141802
359083.24,173704.029999999,680,Moon Street,359083.24,173704.03,-2.59034300436882,51.4608210696734
358879.25,173231.439999999,681,Bridewell Street/ Fairfax Street (Opp Police Station),358879.25,173231.44,-2.59322401741032,51.4565569853066
359128.89,173411.710000001,682,Broadmead/Callow Hill Court,359128.89,173411.71,-2.58965206221113,51.4581960228173
358735,171552,683,Metrobus Dalby Avenue Bus Stop,358735,171552,-2.59510435337749,51.4414463245351
360392.45,173409.789999999,684,Lawrence Hill Roundabout (South),360392.45,173409.79,-2.57146605859223,51.4582689901715
360408.52,174008.779999999,685,next to 008,360408.52,174008.78,-2.57130186782869,51.4636558269786
360449.84,173789.050000001,686,on col 51,360449.84,173789.05,-2.57068250250833,51.4616830674003
360431.5,173937.439999999,687,Easton Way/Stapleton Road,360431.5,173937.44,-2.57096309756925,51.4630160003548
360453.55,173538.66,688,Lawrence Hill Roundabout (North),360453.55,173538.66,-2.57060108571749,51.4594319942244
360438.35,173911.630000001,689,near FP0009,360438.35,173911.63,-2.57086160835929,51.4627844154633
360214,174219,690,"M32, Junct 3 (Easton Way) - Street Lighting Column 1",360214,174219,-2.57412553439301,51.4655322906542
360387.91,173995.73,691,"Rawnsley House, Rear PTZ",360387.91,173995.73,-2.5715970719434,51.463537042868
360429.68,173739.26,692,Durbin Walk PTZ,360429.68,173739.26,-2.57096710371114,51.4612339753585
360440.35,173807.02,693,"Twinnell House, Rear Right PTZ",360440.35,173807.02,-2.57082110990188,51.4618439752743
360491.1,173569.289999999,694,Walker Close Rear Upper PTZ,360491.1,173569.29,-2.57006405601994,51.4597100317515
360483.98,173699.470000001,695,"Lansdowne Court, Main Entrance (External)",360483.98,173699.47,-2.57018108763645,51.4608800206701
360483.98,173699.470000001,696,"Lansdowne Court, Main entrance PTZ",360483.98,173699.47,-2.57018108763645,51.4608800206701
360396,174052,697,"DEPLOYABLE CAMERA - Fly tipping - Easton Way, mounted to lighting column 7. ",360396,174052,-2.57148692940061,51.4640435520467
361084.42,173058.880000001,698,"Corbett House, Vehicle Gates (Static) ",361084.42,173058.88,-2.56146807454562,51.4551619443115
361076.78,173076.52,699,"Corbett House, Front  PTZ",361076.78,173076.52,-2.56157996894289,51.4553200252907
361064.85,173080.279999999,700,"Corbett House, Main Entrance Door Panel",361064.85,173080.28,-2.56175208011348,51.455353011228
361064.85,173080.279999999,701,"Corbett House, Laundry (Outside Laundry)",361064.85,173080.28,-2.56175208011348,51.455353011228
361064.85,173080.279999999,702,"Corbett House, Lift #1",361064.85,173080.28,-2.56175208011348,51.455353011228
361064.85,173080.279999999,703,"Corbett House, Lift #2",361064.85,173080.28,-2.56175208011348,51.455353011228
361064.85,173080.279999999,704,"Corbett House, Laundry",361064.85,173080.28,-2.56175208011348,51.455353011228
361064.85,173080.279999999,705,"Corbett House, Lift lobby (right)",361064.85,173080.28,-2.56175208011348,51.455353011228
361064.85,173080.279999999,706,"Corbett House, Stairwell (Internal)",361064.85,173080.28,-2.56175208011348,51.455353011228
361064.85,173080.279999999,707,"Corbett House, Main Entrance (Internal)",361064.85,173080.28,-2.56175208011348,51.455353011228
361064.85,173080.279999999,708,"Corbett House, Lift Lobby (Left)",361064.85,173080.28,-2.56175208011348,51.455353011228
361064.85,173080.279999999,709,"Corbett House, Waiting Room",361064.85,173080.28,-2.56175208011348,51.455353011228
359352.73,173190.810000001,710,Castle Park (North East Corner),359352.73,173190.81,-2.58640502041029,51.4562260194652
359703.13,173445.029999999,711,"Ropewalk House, Main Entrance PTZ, St Jude's",359703.13,173445.03,-2.58139109809694,51.4585369733953
359704.93,173443.35,712,"Ropewalk House Lift #2, St Jude's",359704.93,173443.35,-2.58136500000744,51.4585219966063
359704.93,173443.35,713,"Ropewalk House Lift Lobby #2, St Jude's",359704.93,173443.35,-2.58136500000744,51.4585219966063
359698.26,173443.4,714,"Ropewalk House Laundry, St Jude's",359698.26,173443.4,-2.58146100406481,51.4585219691972
359717.69,173458.039999999,715,Ropewalk House Lobby #1,359717.69,173458.04,-2.58118302469434,51.4586549920783
359452.67,173106.369999999,716,Old Market Street/Lower Castle Street,359452.67,173106.37,-2.58495700819568,51.4554739880597
361020.7,173166.92,717,"longlands stairwell 
",361020.7,173166.92,-2.56239702972018,51.456128977498
361020.7,173166.92,718,"longlands hse rear bk door
",361020.7,173166.92,-2.56239702972018,51.456128977498
361020.7,173166.92,719,"longlands far lobby 
",361020.7,173166.92,-2.56239702972018,51.456128977498
361020.7,173166.92,720,"Longlands House, Main Entrance Door Panel",361020.7,173166.92,-2.56239702972018,51.456128977498
361020.7,173166.92,721,"Longlands House, Lift Lobby (Left)",361020.7,173166.92,-2.56239702972018,51.456128977498
361020.7,173166.92,722,"Longlands FR door lobby
",361020.7,173166.92,-2.56239702972018,51.456128977498
361020.7,173166.92,723,"Longlands House, Main Entrance (Internal)",361020.7,173166.92,-2.56239702972018,51.456128977498
361002,173180,724,"longlands house front PTZ
",361002,173180,-2.56266760728357,51.4562452946185
361008.19,173156.67,725,"longlands FR right external dome
",361008.19,173156.67,-2.56257594917078,51.4560359538851
358200.91,172720.050000001,726,"CAMERA 16 - College Street Car Park, Cycle Racks Central/Upper Internal (by door 8, looking down bike racks)",358200.91,172720.05,-2.60292606313322,51.4519089786282
358209.81,172719.75,727,"CAMERA 13 - College Street Car Park, Upper/Middle Left Internal (looking at final exit arrow on ground, also opposite camera 3. in front of permit bay 13)",358209.81,172719.75,-2.60279795070353,51.4519069411289
358214.54,172711.82,728,"CAMERA 4 - College Street Car Park, Right Corner Facing Door Internal (facing door 6)",358214.54,172711.82,-2.60272894315393,51.4518359901507
358200.9,172727.279999999,729,"CAMERA 2 - College Street Car Park, Upper POF Internal (looking at pay machine)",358200.9,172727.28,-2.60292706412491,51.4519739855582
358201.86,172733.5,730,CAMERA 1 - College Street Pedestrian Entry/Exit Internal (looking at permit bay 6),358201.86,172733.5,-2.60291398640848,51.4520299831249
358191.12,172729.470000001,731,"CAMERA 15 - College Street Car Park, Vehicle Entry/Exit Internal",358191.12,172729.47,-2.60306806467338,51.4519929513506
358206.9,172729.23,732,"College Street Car Park, EXTERNAL",358206.9,172729.23,-2.6028409511603,51.4519919636503
358201.53,172727.27,733,"CAMERA 7 - College Street car Park, EXTERNAL",358201.53,172727.27,-2.60291799680979,51.4519739423621
358215.72,172712.48,734,College Street Car Park External PTZ,358215.72,172712.48,-2.60271204041376,51.451842011935
358242,172712,735,CITY HALL - Camera 14 - Bike Shed internal (Deanery Road),358242,172712,-2.60233379759946,51.4518396435795
358244,172727,736,CITY HALL - Camera 15 - Bike Shed Door (Deanery Road),358244,172727,-2.60230679251412,51.4519746624429
358243,172768,737,CITY HALL - Camera 17 - Door 2 (College Street),358243,172768,-2.60232603831878,51.4523432349293
358237,172777,738,CITY HALL - Camera 18 - Ramp (College Street),358237,172777,-2.60241344911764,51.4524237128175
358238,172777,739,CITY HALL - Camera 19 - Cash Hall (Deanery Road),358238,172777,-2.60239905828014,51.4524237869096
358982.5,172914.5,740,Bristol Bridge/Baldwin Street,358982.5,172914.5,-2.59170122944232,51.4537147829954
357636.72,174131.75,741,Clifton Down Station Camera 1,357636.72,174131.75,-2.61121504381464,51.4645599616546
357665,174130,742,Clifton Down Rail Station 2,357665,174130,-2.61080774674655,51.4645463520152
358249,172805,743,CITY HALL - Camera 1 - Cash Hall entrance (Central),358249,172805,-2.6022440743178,51.4526763604229
358255,172822,744,CITY HALL - Camera 2 - Cash Hall entrance (Park Street),358255,172822,-2.60215974131374,51.4528296582677
358258,172823,745,CITY HALL - Camera 3 - Door 3 (Frog Lane),358258,172823,-2.60211668675811,51.4528388718247
358264,172823,746,CITY HALL - Camera 4 - Door 3 (Fire door),358264,172823,-2.60203034087403,51.4528393161333
358963,172016.869999999,747,Att to Column 8,358963,172016.87,-2.59187783146611,51.4456426046981
358825,173390,748,Metrobus Lewins Mead/ Broadmead,358825,173390,-2.59402327988599,51.4579786962327
359531.94,173533.57,749,between 17 and 19,359531.94,173533.57,-2.58386510945402,51.4593208028652
359497.86,173363.140000001,750,Bond Street/ Temple Way opposite Champion square (on traffic column),359497.86,173363.14,-2.58433607406858,51.4577859540022
359325.18,168135.92,751,Whitchurch Lane,359325.18,168135.92,-2.58621795024147,51.410774997338
359585,168261,752,Whitchurch Lane/ Hengrove Park 5 (Hanger Way),359585,168261,-2.58249666953387,51.4119182326177
359046.44,172196.859999999,753,Redcliffe Hill,359046.44,172196.86,-2.59069803581373,51.4472669734409
360335.1,173967.560000001,754,"Rawnsley House, Right Front PTZ",360335.1,173967.56,-2.5723540716451,51.4632800450056
358570.44,172504.26,755,Narrow Quay/Farr's Lane (Peros Bridge),358570.44,172504.26,-2.59758305633982,51.4499960332515
358323,172594,756,"Explore Lane (on anchor road, looking at explore lane)",358323,172594,-2.6011542157291,51.4507846555599
361108.12,171604.630000001,757,Bath Road/Spine Road,361108.12,171604.63,-2.56096703973192,51.4420880181529
358959.54,172081.34,758,Redcliffe Bridge Roundabout (Bedminster Bridge),358959.54,172081.34,-2.59193507306832,51.4462220063389
356712,169677,759,Entrance driveway South Bristol Crematorium,356712,169677,-2.62398028618282,51.4244367137205
358550.17,172609.75,760,Located on pontoon,358550.17,172609.75,-2.59788709135834,51.4509430246563
359567.04,173342.57,761,"St Matthias House, Main Entrance PTZ, St Jude's",359567.04,173342.57,-2.58333806147637,51.4576059693732
359547.28,173339.390000001,762,"St Mathias House Main Entrance Lobby, St Jude's",359547.28,173339.39,-2.58362208833663,51.4575759586569
359208.65,174533.59,763,Montpellier Station,359208.65,174533.59,-2.58863396222995,51.4682890135411
357280.34,174839.77,764,Upper Belgrave Road/Stoke Road,357280.34,174839.77,-2.61643104689094,51.4708990253551
359954.55,173396.33,765,"Somerset House Lobby #4, St Jude's",359954.55,173396.33,-2.57776700407639,51.4581170166811
359951.33,173402.58,766,"Somerset House Lobby #3, St Jude's",359951.33,173402.58,-2.57781405540878,51.4581729838701
359941.6,173420.23,767,"Somerset House Lobby #2, St Jude's",359941.6,173420.23,-2.57795609302737,51.4583309898529
359998.11,173449.48,768,"Wessex House/Gloucester House PTZ, St Jude's",359998.11,173449.48,-2.57714608060098,51.4585980015316
360000.09,173427.550000001,769,"Gloucester House/Trinity Avenue PTZ #2, St Jude's",360000.09,173427.55,-2.57711510323531,51.4584009614981
359975.16,173420.08,770,"Gloucester House/Trinity Avenue PTZ #1, St Jude's",359975.16,173420.08,-2.57747306362503,51.4583320258405
359948.97,173385.689999999,771,"Somerset House Rear PTZ, St Jude's",359948.97,173385.69,-2.57784610898348,51.4580209519931
359957.01,173426.449999999,772,"Somerset House, Car Park PTZ, St Jude's",359957.01,173426.45,-2.57773500876039,51.4583880113807
359997.3,173434.470000001,773,"Gloucester House Lobby #4, St Jude's",359997.3,173434.47,-2.57715604101585,51.4584629836776
359966.56,173421.26,774,"Gloucester House Lobby #2, St Jude's",359966.56,173421.26,-2.57759697272232,51.4583420247442
359979.74,173436.5,775,"Gloucester House Lobby #3, St Jude's",359979.74,173436.5,-2.57740900385862,51.4584799893152
359983.01,173428.02,776,"Gloucester House Lift, St Jude's",359983.01,173428.02,-2.57736098078567,51.4584039747797
359966.56,173421.26,777,"Gloucester House Lobby #1, St Jude's",359966.56,173421.26,-2.57759697272232,51.4583420247442
359957.93,173401.970000001,778,"Somerset House Laundry, St Jude's",359957.93,173401.97,-2.57771899617487,51.4581679681644
359169.17,173760.43,779,Junction Upper York Street and Backfields,359169.17,173760.43,-2.58911270838855,51.4613344171394
353433,178784,780,St Anthonys Park Travellers Site - Camera 1,353433,178784,-2.67234009913043,51.5060563026229
353433,178784,781,St Anthonys Park Travellers Site - Camera 2,353433,178784,-2.67234009913043,51.5060563026229
353433,178784,782,St Anthonys Park Travellers Site - Camera 3,353433,178784,-2.67234009913043,51.5060563026229
360879,170092,783,Wells Road/Ponsford Road,360879,170092,-2.56409502152206,51.4284719266047
360739,170660,784,Wells Road/Broadwalk,360739,170660,-2.56617221809327,51.4335692510106
358568.01,172956.039999999,785,Centre (Colston Street),358568.01,172956.04,-2.59767103309507,51.4540579619804
358561.74,172817.41,786,Centre (Denmark Street),358561.74,172817.41,-2.59774498431273,51.4528110259743
358349.18,171491.17,787,Cannon Street outside London Inn,358349.18,171491.17,-2.60064812178416,51.44087106803
359821,173401,788,"JCH Generator Room
",359821,173401,-2.57968964342607,51.4581494998882
359837,173417,789,"JCH Reception (Cam #1)
",359837,173417,-2.57946118163028,51.4582945023453
359837,173417,790,"JCH Smoking Cage Door (Cam #2)
",359837,173417,-2.57946118163028,51.4582945023453
359837,173417,791,"JCH CCTV Entry #1 (Cam #3)
",359837,173417,-2.57946118163028,51.4582945023453
359837,173417,792,"JCH CCTV Entry #2 (Cam #4)
",359837,173417,-2.57946118163028,51.4582945023453
359837,173417,793,"JCH Equipment Room #3 (Cam #5)
",359837,173417,-2.57946118163028,51.4582945023453
359837,173417,794,"JCH Equipment Room #2-1 (Cam #6)
",359837,173417,-2.57946118163028,51.4582945023453
359837,173417,795,"JCH Equipment Room #2-2 (Cam #7)
",359837,173417,-2.57946118163028,51.4582945023453
359837,173417,796,"JCH CCTV Housing Door (Cam #8)
",359837,173417,-2.57946118163028,51.4582945023453
359830,173413,797,"JCH Control Room Entrance External
",359830,173413,-2.57956147464621,51.4582580379289
359829.67,173454.82,798,"Great Ann Street Grass Area PTZ, St Jude's",359829.67,173454.82,-2.57957097489194,51.4586340333614
359789.23,173498.51,799,"Great George Street/Wade Street PTZ, St Jude's",359789.23,173498.51,-2.58015798473454,51.4590239819406
359793.17,173478.789999999,800,"Elton House Main Door Internal, St Jude's",359793.17,173478.79,-2.58009903115039,51.458846953367
359835.59,173439.529999999,801,"John Cozens House Lift, St Jude's",359835.59,173439.53,-2.57948403402416,51.4584969773407
359835.59,173439.529999999,802,John Cozens House Entrance Lobby,359835.59,173439.53,-2.57948403402416,51.4584969773407
358813.11,171814.710000001,803,Bedminster Parade/Regent Road,358813.11,171814.71,-2.59401105778781,51.4438140434507
358367.16,172807.880000001,804,Park Street (Lower) College Green,358367.16,172807.88,-2.6005439981813,51.4527109964186
359532.64,173568.060000001,805,Bond Street South,359532.64,173568.06,-2.58385899082109,51.4596309659697
359651.81,173660.49,806,opp 007,359651.81,173660.49,-2.58215435461946,51.4604705826525
359550.99,173577.609999999,807,next to 007,359550.99,173577.61,-2.58359597557925,51.4597181509294
358363.66,167605.189999999,808,Middleford House Front Door (External Static),358363.66,167605.19,-2.5999800036386,51.4059329488254
358363.66,167605.189999999,809,Middleford House Rear Lobby,358363.66,167605.19,-2.5999800036386,51.4059329488254
358363.66,167605.189999999,810,Middleford House Lift 02,358363.66,167605.19,-2.5999800036386,51.4059329488254
358363.66,167605.189999999,811,Middleford House Lift 01,358363.66,167605.19,-2.5999800036386,51.4059329488254
358363.66,167605.189999999,812,Middleford House Lift Lobby,358363.66,167605.19,-2.5999800036386,51.4059329488254
358363.66,167605.189999999,813,Middleford House Front Lobby,358363.66,167605.19,-2.5999800036386,51.4059329488254
358368.43,167609.939999999,814,Middleford House Front Door Panel,358368.43,167609.94,-2.59991198733301,51.4059760091291
358364.64,167606.41,815,Middleford House Laundry,358364.64,167606.41,-2.59996605833592,51.4059439904523
358363.87,167605.52,816,Hartcliffe Middleford House Ground Floor Stairwell,358363.87,167605.52,-2.59997702341841,51.4059359314334
359157.34,173060.470000001,817,Castle Park (South West),359157.34,173060.47,-2.58920197990314,51.4550399545274
361111.45,172894.74,818,"Barton House, Rear Left PTZ",361111.45,172894.74,-2.56106103043726,51.4536879689759
361117.7,172912.039999999,819,"Barton House, Lift #2",361117.7,172912.04,-2.56097298263747,51.4538439487559
